{
  "generated_at_unix_ms": 1765908698003,
  "bbox": {
    "west": -109.0603,
    "south": 36.9924,
    "east": -102.0415,
    "north": 41.0034
  },
  "count": 842,
  "cameras": [
    {
      "uri": "camera/404",
      "title": "I-25 MP 155.95 NB at North Gate Blvd",
      "active": true,
      "lon": -104.83582,
      "lat": 39.02838,
      "hls_sources": []
    },
    {
      "uri": "camera/409",
      "title": "Quebec St MP 004.00 NB at County Line Rd",
      "active": true,
      "lon": -104.90462,
      "lat": 39.56573,
      "hls_sources": []
    },
    {
      "uri": "camera/410",
      "title": "Quebec St MP 003.00 NB at EB C-470 Ramps",
      "active": true,
      "lon": -104.90457,
      "lat": 39.56335,
      "hls_sources": []
    },
    {
      "uri": "camera/411",
      "title": "University Blvd MP 002.00 NB at Highlands Ranch Pkwy / S Colorado Blvd",
      "active": true,
      "lon": -104.94436,
      "lat": 39.54439,
      "hls_sources": []
    },
    {
      "uri": "camera/412",
      "title": "County Line Rd MP 003.00 EB at S Holly St",
      "active": true,
      "lon": -104.92311,
      "lat": 39.56599,
      "hls_sources": []
    },
    {
      "uri": "camera/413",
      "title": "University Blvd MP 001.00 NB at Wildcat Reserve Pkwy",
      "active": true,
      "lon": -104.93543,
      "lat": 39.5427,
      "hls_sources": []
    },
    {
      "uri": "camera/414",
      "title": "Quebec St MP 001.00 SB at Rock Canyon High School",
      "active": true,
      "lon": -104.91943,
      "lat": 39.51751,
      "hls_sources": []
    },
    {
      "uri": "camera/415",
      "title": "Highlands Ranch Pkwy MP 002.00 EB at Wildcat Reserve Pkwy",
      "active": true,
      "lon": -105.01675,
      "lat": 39.53634,
      "hls_sources": []
    },
    {
      "uri": "camera/416",
      "title": "Highlands Ranch Pkwy MP 003.00 WB at S Broadway",
      "active": true,
      "lon": -104.99181,
      "lat": 39.54941,
      "hls_sources": []
    },
    {
      "uri": "camera/417",
      "title": "Broadway Blvd MP 001.00 NB at Dad Clark Dr",
      "active": true,
      "lon": -104.98666,
      "lat": 39.56268,
      "hls_sources": []
    },
    {
      "uri": "camera/418",
      "title": "Quebec St MP 002.00 SB at Gleneagles Village Pkwy",
      "active": true,
      "lon": -104.91152,
      "lat": 39.55536,
      "hls_sources": []
    },
    {
      "uri": "camera/419",
      "title": "Lucent Blvd MP 018.50 NB at EB C-470 Ramps",
      "active": true,
      "lon": -105.0079,
      "lat": 39.55856,
      "hls_sources": []
    },
    {
      "uri": "camera/420",
      "title": "Lincoln Ave MP 001.00 WB at S Chambers Rd",
      "active": true,
      "lon": -104.81167,
      "lat": 39.5367,
      "hls_sources": []
    },
    {
      "uri": "camera/421",
      "title": "Broadway Blvd MP 002.00 SB at Lucent Blvd",
      "active": true,
      "lon": -104.99168,
      "lat": 39.54192,
      "hls_sources": []
    },
    {
      "uri": "camera/422",
      "title": "Lucent Blvd MP 002.00 NB at Plaza Dr",
      "active": true,
      "lon": -105.00777,
      "lat": 39.55589,
      "hls_sources": []
    },
    {
      "uri": "camera/424",
      "title": "Wildcat Reserve Pkwy MP 001.00 EB at McArther Ranch Rd",
      "active": true,
      "lon": -104.94096,
      "lat": 39.52813,
      "hls_sources": []
    },
    {
      "uri": "camera/425",
      "title": "Highlands Ranch Pkwy MP 001.00 EB at Fairview Pkwy",
      "active": true,
      "lon": -104.94826,
      "lat": 39.54247,
      "hls_sources": []
    },
    {
      "uri": "camera/426",
      "title": "County Line Rd MP 001.00 EB at Lucent Blvd",
      "active": true,
      "lon": -105.00983,
      "lat": 39.5647,
      "hls_sources": []
    },
    {
      "uri": "camera/428",
      "title": "Wildcat Reserve Pkwy MP 002.00 WB at Mountain Maple Ln",
      "active": true,
      "lon": -105.01111,
      "lat": 39.53289,
      "hls_sources": []
    },
    {
      "uri": "camera/429",
      "title": "Quebec St MP 002.00 NB at Lincoln Ave / University Ave",
      "active": true,
      "lon": -104.91315,
      "lat": 39.54128,
      "hls_sources": []
    },
    {
      "uri": "camera/430",
      "title": "Broadway Blvd MP 001.00 NB at Plaza Dr",
      "active": true,
      "lon": -104.98762,
      "lat": 39.55854,
      "hls_sources": []
    },
    {
      "uri": "camera/432",
      "title": "Quebec St MP 003.00 NB at Park Meadows Dr / Busines Center Dr",
      "active": true,
      "lon": -104.90407,
      "lat": 39.5606,
      "hls_sources": []
    },
    {
      "uri": "camera/433",
      "title": "Lincoln Ave MP 001.00 EB at Stonegate Pkwy",
      "active": true,
      "lon": -104.80616,
      "lat": 39.53467,
      "hls_sources": []
    },
    {
      "uri": "camera/434",
      "title": "Lucent Blvd MP 001.00 SB at Town Center Dr",
      "active": true,
      "lon": -105.00813,
      "lat": 39.55113,
      "hls_sources": []
    },
    {
      "uri": "camera/435",
      "title": "County Line Rd MP 002.00 EB at Colorado Blvd",
      "active": true,
      "lon": -104.94191,
      "lat": 39.56593,
      "hls_sources": []
    },
    {
      "uri": "camera/437",
      "title": "Lincoln Ave MP 001.00 WB at Meridian Village Pkwy / N 3rd St",
      "active": true,
      "lon": -104.8236,
      "lat": 39.53658,
      "hls_sources": []
    },
    {
      "uri": "camera/438",
      "title": "Broadway Blvd MP 001.00 SB at WB C-470 Ramps",
      "active": true,
      "lon": -104.98851,
      "lat": 39.56488,
      "hls_sources": []
    },
    {
      "uri": "camera/439",
      "title": "University Blvd MP 003.00 NB at Dad Clark Dr",
      "active": true,
      "lon": -104.9594,
      "lat": 39.56076,
      "hls_sources": []
    },
    {
      "uri": "camera/440",
      "title": "Wildcat Reserve Pkwy MP 001.00 EB at S Broadway",
      "active": true,
      "lon": -104.98744,
      "lat": 39.52745,
      "hls_sources": []
    },
    {
      "uri": "camera/441",
      "title": "US 50 MP 082.65 EB at 5th St/CO 348 in Olathe",
      "active": true,
      "lon": -107.97384,
      "lat": 38.60484,
      "hls_sources": []
    },
    {
      "uri": "camera/442",
      "title": "US 50 MP 240.95 EB : 0.3 miles W of Hayden Creek Rd in Coaldale",
      "active": true,
      "lon": -105.75152,
      "lat": 38.36761,
      "hls_sources": []
    },
    {
      "uri": "camera/444",
      "title": "US 50 MP 223.25 EB : 0.4 miles E of Vandaveer Rd in Salida",
      "active": true,
      "lon": -105.97758,
      "lat": 38.51307,
      "hls_sources": []
    },
    {
      "uri": "camera/445",
      "title": "US 50 MP 199.35 EB at Monarch Pass",
      "active": true,
      "lon": -106.32616,
      "lat": 38.49751,
      "hls_sources": []
    },
    {
      "uri": "camera/446",
      "title": "US 50 MP 066.05 WB at Falcon Rd in Delta",
      "active": true,
      "lon": -108.14025,
      "lat": 38.76077,
      "hls_sources": []
    },
    {
      "uri": "camera/447",
      "title": "US 50 MP 053.55 WB at Mesa County Line",
      "active": true,
      "lon": -108.29938,
      "lat": 38.84235,
      "hls_sources": []
    },
    {
      "uri": "camera/449",
      "title": "US 50 MP 097.60 EB : 0.6 miles E of Miguel Rd in Montrose",
      "active": true,
      "lon": -107.79246,
      "lat": 38.48908,
      "hls_sources": []
    },
    {
      "uri": "camera/450",
      "title": "US 50 MP 158.05 EB : 0.8 miles E of N Main St/CO 135 in Gunnison",
      "active": true,
      "lon": -106.91535,
      "lat": 38.54431,
      "hls_sources": []
    },
    {
      "uri": "camera/451",
      "title": "US 550 MP 112.80 NB : 1.9 miles S of CR 2 in Eldredge",
      "active": true,
      "lon": -107.76072,
      "lat": 38.26661,
      "hls_sources": []
    },
    {
      "uri": "camera/452",
      "title": "US 550 MP 070.65 NB : 0.2 miles W of CO 110 in Silverton",
      "active": true,
      "lon": -107.67311,
      "lat": 37.8065,
      "hls_sources": []
    },
    {
      "uri": "camera/453",
      "title": "US 550 MP 048.60 SB : 0.6 miles S of Purgatory Blvd",
      "active": true,
      "lon": -107.8119,
      "lat": 37.62193,
      "hls_sources": []
    },
    {
      "uri": "camera/454",
      "title": "US 550 MP 087.95 NB : 2.2 miles N of Ironton Red Mountain Pass",
      "active": true,
      "lon": -107.65919,
      "lat": 37.96856,
      "hls_sources": []
    },
    {
      "uri": "camera/456",
      "title": "US 550 MP 124.60 SB at Riverside Rd/6600 Rd in Montrose",
      "active": true,
      "lon": -107.85332,
      "lat": 38.41763,
      "hls_sources": []
    },
    {
      "uri": "camera/457",
      "title": "US 550 MP 103.45 SB : 0.2 miles S of Sherman St/CO 62 in Ridgway",
      "active": true,
      "lon": -107.75209,
      "lat": 38.15519,
      "hls_sources": []
    },
    {
      "uri": "camera/459",
      "title": "US 85 MP 263.65 NB : 0.3 miles N of WCR 394 in Evans",
      "active": true,
      "lon": -104.69659,
      "lat": 40.36384,
      "hls_sources": []
    },
    {
      "uri": "camera/460",
      "title": "US 85 MP 289.05 NB at WCR 100 in Nunn",
      "active": true,
      "lon": -104.78216,
      "lat": 40.7109,
      "hls_sources": []
    },
    {
      "uri": "camera/462",
      "title": "US 491 MP 068.15 SB : 1.4 miles E of Utah Border",
      "active": true,
      "lon": -109.01709,
      "lat": 37.80884,
      "hls_sources": []
    },
    {
      "uri": "camera/463",
      "title": "US 40 MP 459.65 WB at CR 34 in Firstview",
      "active": true,
      "lon": -102.5377,
      "lat": 38.81681,
      "hls_sources": []
    },
    {
      "uri": "camera/464",
      "title": "US 40 MP 234.60 EB : 0.1 miles E of Mary Jane Rd in Winter Park",
      "active": true,
      "lon": -105.75273,
      "lat": 39.85662,
      "hls_sources": []
    },
    {
      "uri": "camera/466",
      "title": "US 40 MP 224.15 EB at Fraser Flats CR 83",
      "active": true,
      "lon": -105.82708,
      "lat": 39.97674,
      "hls_sources": []
    },
    {
      "uri": "camera/467",
      "title": "US 40 MP 219.05 EB at Red Dirt Hill CR 53",
      "active": true,
      "lon": -105.91787,
      "lat": 40.00566,
      "hls_sources": []
    },
    {
      "uri": "camera/468",
      "title": "US 40 MP 134.45 WB at Mt Werner Rd",
      "active": true,
      "lon": -106.82184,
      "lat": 40.45913,
      "hls_sources": []
    },
    {
      "uri": "camera/469",
      "title": "US 40 MP 121.70 EB : 0.3 miles E of Milner",
      "active": true,
      "lon": -107.01479,
      "lat": 40.48551,
      "hls_sources": []
    },
    {
      "uri": "camera/470",
      "title": "US 40 MP 040.35 WB at Elk Spings Ranch",
      "active": true,
      "lon": -108.389,
      "lat": 40.37032,
      "hls_sources": []
    },
    {
      "uri": "camera/471",
      "title": "US 385 MP 271.30 SB : 10.7 miles S of E Denver St/US 6 in Holyoke",
      "active": true,
      "lon": -102.30112,
      "lat": 40.46821,
      "hls_sources": []
    },
    {
      "uri": "camera/472",
      "title": "US 385 MP 219.55 NB at US 36 in Idalia",
      "active": true,
      "lon": -102.25558,
      "lat": 39.74591,
      "hls_sources": []
    },
    {
      "uri": "camera/473",
      "title": "US 34 MP 014.70 EB at W Portal Rd in Grand Lake",
      "active": true,
      "lon": -105.83507,
      "lat": 40.25143,
      "hls_sources": []
    },
    {
      "uri": "camera/474",
      "title": "US 287 MP 380.25 NB at Virginia Dale",
      "active": true,
      "lon": -105.34606,
      "lat": 40.95162,
      "hls_sources": []
    },
    {
      "uri": "camera/475",
      "title": "US 287 MP 113.45 SB at CO 96 in Eads",
      "active": true,
      "lon": -102.78599,
      "lat": 38.47815,
      "hls_sources": []
    },
    {
      "uri": "camera/476",
      "title": "US 285 MP 126.25 SB : 0.3 miles S of US 50 in Poncha Springs",
      "active": true,
      "lon": -106.07678,
      "lat": 38.51199,
      "hls_sources": []
    },
    {
      "uri": "camera/477",
      "title": "US 285 MP 192.55 NB at CR 15/Elkhorn Rd in Como",
      "active": true,
      "lon": -105.88192,
      "lat": 39.31524,
      "hls_sources": []
    },
    {
      "uri": "camera/480",
      "title": "US 285 MP 241.10 NB : 0.4 miles N of Doubleheader Ranch Rd",
      "active": true,
      "lon": -105.23965,
      "lat": 39.55616,
      "hls_sources": []
    },
    {
      "uri": "camera/481",
      "title": "US 285 MP 235.65 NB at Kitty Dr in Conifer",
      "active": true,
      "lon": -105.3048,
      "lat": 39.518,
      "hls_sources": []
    },
    {
      "uri": "camera/482",
      "title": "US 285 MP 232.55 NB : 0.2 miles N of Kings Valley Dr in Conifer",
      "active": true,
      "lon": -105.34528,
      "lat": 39.49197,
      "hls_sources": []
    },
    {
      "uri": "camera/484",
      "title": "US 285 MP 195.65 SB : 0.7 miles N of CR 34/Packer Ln in Jefferson",
      "active": true,
      "lon": -105.84355,
      "lat": 39.34514,
      "hls_sources": []
    },
    {
      "uri": "camera/486",
      "title": "US 285 MP 119.10 SB at Poncha Pass",
      "active": true,
      "lon": -106.08817,
      "lat": 38.42206,
      "hls_sources": []
    },
    {
      "uri": "camera/487",
      "title": "US 285 MP 100.25 NB at CO 17",
      "active": true,
      "lon": -105.94027,
      "lat": 38.18407,
      "hls_sources": []
    },
    {
      "uri": "camera/488",
      "title": "CO 8 MP 000.20 SB at US 285 S of Morrison",
      "active": true,
      "lon": -105.19343,
      "lat": 39.62431,
      "hls_sources": []
    },
    {
      "uri": "camera/489",
      "title": "US 24 MP 320.90 EB at E Woodmen Rd in Falcon",
      "active": true,
      "lon": -104.60069,
      "lat": 38.93827,
      "hls_sources": []
    },
    {
      "uri": "camera/490",
      "title": "US 24 MP 313.20 EB at Marksheffel Rd in Colorado Springs",
      "active": true,
      "lon": -104.6815,
      "lat": 38.85221,
      "hls_sources": []
    },
    {
      "uri": "camera/491",
      "title": "US 24 MP 254.35 WB at Wilkerson Pass",
      "active": true,
      "lon": -105.52566,
      "lat": 39.03897,
      "hls_sources": []
    },
    {
      "uri": "camera/492",
      "title": "US 24 MP 212.90 EB at US 285 in Johnson Village",
      "active": true,
      "lon": -106.11644,
      "lat": 38.80958,
      "hls_sources": []
    },
    {
      "uri": "camera/493",
      "title": "US 160 MP 278.40 WB at La Veta Pass",
      "active": true,
      "lon": -105.19231,
      "lat": 37.61716,
      "hls_sources": []
    },
    {
      "uri": "camera/494",
      "title": "US 160 MP 258.25 WB at CO 159 in Fort Garland",
      "active": true,
      "lon": -105.4309,
      "lat": 37.4273,
      "hls_sources": []
    },
    {
      "uri": "camera/495",
      "title": "US 160 MP 232.75 WB at US 285/Main St in Alamosa",
      "active": true,
      "lon": -105.87444,
      "lat": 37.4683,
      "hls_sources": []
    },
    {
      "uri": "camera/496",
      "title": "US 160 MP 215.70 WB at US 285/N Broadway St in Monte Vista",
      "active": true,
      "lon": -106.14972,
      "lat": 37.58064,
      "hls_sources": []
    },
    {
      "uri": "camera/497",
      "title": "US 160 MP 202.05 WB at CO 112/Oak St in Del Norte",
      "active": true,
      "lon": -106.35177,
      "lat": 37.6785,
      "hls_sources": []
    },
    {
      "uri": "camera/499",
      "title": "US 160 MP 168.20 EB : 0.5 miles E of Wolf Creek Ski Area",
      "active": true,
      "lon": -106.7848,
      "lat": 37.47636,
      "hls_sources": []
    },
    {
      "uri": "camera/500",
      "title": "US 160 MP 142.50 WB : 0.1 miles E of Great W Ave in Pagosa Springs",
      "active": true,
      "lon": -107.02742,
      "lat": 37.26762,
      "hls_sources": []
    },
    {
      "uri": "camera/501",
      "title": "US 160 MP 113.75 EB : 0.3 miles W of USFS 143",
      "active": true,
      "lon": -107.45366,
      "lat": 37.26557,
      "hls_sources": []
    },
    {
      "uri": "camera/502",
      "title": "US 160 MP 040.90 EB : 0.7 miles E of CO 145/State St in Cortez",
      "active": true,
      "lon": -108.54091,
      "lat": 37.3523,
      "hls_sources": []
    },
    {
      "uri": "camera/503",
      "title": "US 160 MP 061.35 EB at Mancos Hill",
      "active": true,
      "lon": -108.21434,
      "lat": 37.33815,
      "hls_sources": []
    },
    {
      "uri": "camera/505",
      "title": "I-76 MP 180.30 WB at US 385 in Julesburg",
      "active": true,
      "lon": -102.24673,
      "lat": 40.96957,
      "hls_sources": []
    },
    {
      "uri": "camera/517",
      "title": "I-70 MP 133.25 WB at Dotsero Truck Parking",
      "active": true,
      "lon": -107.06785,
      "lat": 39.64723,
      "hls_sources": []
    },
    {
      "uri": "camera/519",
      "title": "I-70 MP 014.70 EB at Loma Port of Entry",
      "active": true,
      "lon": -108.8353,
      "lat": 39.18716,
      "hls_sources": []
    },
    {
      "uri": "camera/524",
      "title": "I-70 MP 074.65 EB at CO 215 in Parachute",
      "active": true,
      "lon": -108.04727,
      "lat": 39.45554,
      "hls_sources": []
    },
    {
      "uri": "camera/528",
      "title": "I-70 MP 023.10 EB : 2.7 miles W of River Rd in Grand Junction",
      "active": true,
      "lon": -108.68181,
      "lat": 39.12515,
      "hls_sources": []
    },
    {
      "uri": "camera/529",
      "title": "I-70 MP 015.00 WB at CO 139 in Loma",
      "active": true,
      "lon": -108.81311,
      "lat": 39.17881,
      "hls_sources": []
    },
    {
      "uri": "camera/530",
      "title": "I-70 MP 000.65 EB : 0.9 miles E of Utah Border",
      "active": true,
      "lon": -109.04075,
      "lat": 39.18922,
      "hls_sources": []
    },
    {
      "uri": "camera/534",
      "title": "CO 9 MP 047.00 SB at CO 9/US 24 in Hartsel",
      "active": true,
      "lon": -105.79295,
      "lat": 39.02142,
      "hls_sources": []
    },
    {
      "uri": "camera/535",
      "title": "CO 9 MP 047.60 SB at CO 9/US 24 1.0 mile W of Hartsel",
      "active": true,
      "lon": -105.81418,
      "lat": 39.0233,
      "hls_sources": []
    },
    {
      "uri": "camera/536",
      "title": "CO 9 MP 127.40 SB : 1.4 miles N of Heeney Rd Green Mountain Reservoir",
      "active": true,
      "lon": -106.32591,
      "lat": 39.91358,
      "hls_sources": []
    },
    {
      "uri": "camera/537",
      "title": "CO 7 MP 006.45 NB at Lily Lake",
      "active": true,
      "lon": -105.53808,
      "lat": 40.30586,
      "hls_sources": []
    },
    {
      "uri": "camera/538",
      "title": "CO 17 MP 039.00 SB at US 285 in Antonito",
      "active": true,
      "lon": -106.01535,
      "lat": 37.06886,
      "hls_sources": []
    },
    {
      "uri": "camera/540",
      "title": "CO 14 MP 176.55 WB at 5th Ave in Briggsdale",
      "active": true,
      "lon": -104.32555,
      "lat": 40.64032,
      "hls_sources": []
    },
    {
      "uri": "camera/541",
      "title": "CO 13 MP 015.70 SB : 3.1 miles S of CR 5 Rio Blanco",
      "active": true,
      "lon": -107.93031,
      "lat": 39.69559,
      "hls_sources": []
    },
    {
      "uri": "camera/544",
      "title": "CO 83 MP 070.30 SB : 0.3 miles S of I-225",
      "active": true,
      "lon": -104.8386,
      "lat": 39.65731,
      "hls_sources": []
    },
    {
      "uri": "camera/545",
      "title": "CO 82 MP 029.80 WB at Phillips River View",
      "active": true,
      "lon": -106.93694,
      "lat": 39.31198,
      "hls_sources": []
    },
    {
      "uri": "camera/546",
      "title": "CO 82 MP 026.70 EB at Snowmass Creek Rd/CR 11",
      "active": true,
      "lon": -106.98518,
      "lat": 39.33091,
      "hls_sources": []
    },
    {
      "uri": "camera/547",
      "title": "CO 82 MP 040.10 WB at Cemetry Ln in Aspen",
      "active": true,
      "lon": -106.83554,
      "lat": 39.19562,
      "hls_sources": []
    },
    {
      "uri": "camera/548",
      "title": "CO 82 MP 035.30 EB at Brush Creek Rd in Snowmass",
      "active": true,
      "lon": -106.89159,
      "lat": 39.27212,
      "hls_sources": []
    },
    {
      "uri": "camera/549",
      "title": "CO 82 MP 023.70 EB at 2 Rivers Rd in Basalt",
      "active": true,
      "lon": -107.02609,
      "lat": 39.35902,
      "hls_sources": []
    },
    {
      "uri": "camera/551",
      "title": "CO 72 MP 044.75 WB : 0.7 miles W of Brainard Lake Rd in Ward",
      "active": true,
      "lon": -105.49643,
      "lat": 40.08263,
      "hls_sources": []
    },
    {
      "uri": "camera/552",
      "title": "CO 71 MP 144.05 SB at CR 18 in Woodrow",
      "active": true,
      "lon": -103.59288,
      "lat": 39.82738,
      "hls_sources": []
    },
    {
      "uri": "camera/553",
      "title": "CO 112 MP 013.15 WB at US 285 in Center",
      "active": true,
      "lon": -106.14882,
      "lat": 37.74824,
      "hls_sources": []
    },
    {
      "uri": "camera/555",
      "title": "CO 115 MP 041.85 SB at JL Ranch Heights Rd in Fort Carson",
      "active": true,
      "lon": -104.80826,
      "lat": 38.73775,
      "hls_sources": []
    },
    {
      "uri": "camera/556",
      "title": "CO 135 MP 026.85 SB : 0.5 miles S of Red Lady Ave in Crested Butte",
      "active": true,
      "lon": -106.97488,
      "lat": 38.86238,
      "hls_sources": []
    },
    {
      "uri": "camera/558",
      "title": "CO 145 MP 070.55 SB : 0.8 miles S of Society Dr in Telluride",
      "active": true,
      "lon": -107.88209,
      "lat": 37.94306,
      "hls_sources": []
    },
    {
      "uri": "camera/3719",
      "title": "CO 145 MP 047.25 NB at Soda St in Rico",
      "active": true,
      "lon": -108.03156,
      "lat": 37.69387,
      "hls_sources": []
    },
    {
      "uri": "camera/17042",
      "title": "US 287 MP 54.30 NB : 0.5 miles N of CR H",
      "active": true,
      "lon": -102.60246,
      "lat": 37.75138,
      "hls_sources": []
    },
    {
      "uri": "camera/97840",
      "title": "CO 139 MP 034.85 NB at Douglas Pass",
      "active": true,
      "lon": -108.80509,
      "lat": 39.59755,
      "hls_sources": []
    },
    {
      "uri": "camera/99614",
      "title": "US 34 MP 144.45 WB at CO 144 in Wiggins",
      "active": true,
      "lon": -104.13161,
      "lat": 40.27391,
      "hls_sources": []
    },
    {
      "uri": "camera/99617",
      "title": "US 34 MP 117.25 EB at Weld County Pkwy/WCR 49 in Kersey",
      "active": true,
      "lon": -104.60167,
      "lat": 40.39192,
      "hls_sources": []
    },
    {
      "uri": "camera/109867",
      "title": "CO 74 MP 005.90 WB at Palo Verde Rd in Evergreen",
      "active": true,
      "lon": -105.33979,
      "lat": 39.64735,
      "hls_sources": []
    },
    {
      "uri": "camera/116461",
      "title": "I-70 MP 362.90 EB : 0.2 miles E of US 40/US 287 in Limon",
      "active": true,
      "lon": -103.65021,
      "lat": 39.26206,
      "hls_sources": []
    },
    {
      "uri": "camera/117302",
      "title": "US 550 MP 013.60 SB : 1.4 miles N of CO 302 in Durango",
      "active": true,
      "lon": -107.85361,
      "lat": 37.18908,
      "hls_sources": []
    },
    {
      "uri": "camera/117303",
      "title": "US 550 MP 014.40 NB : 1.1 miles S of CO 220 in Durango",
      "active": true,
      "lon": -107.84434,
      "lat": 37.19716,
      "hls_sources": []
    },
    {
      "uri": "camera/117305",
      "title": "US 550 MP 015.80 SB : 0.9 miles S of US 160 in Durango",
      "active": true,
      "lon": -107.84425,
      "lat": 37.21436,
      "hls_sources": []
    },
    {
      "uri": "camera/117312",
      "title": "US 550 MP 016.60 NB at EB US 160 Roundabout Ramp in Durango",
      "active": true,
      "lon": -107.84322,
      "lat": 37.22584,
      "hls_sources": []
    },
    {
      "uri": "camera/120911",
      "title": "CO 139 MP 039.85 NB at Douglas Pass",
      "active": true,
      "lon": -108.79086,
      "lat": 39.65743,
      "hls_sources": []
    },
    {
      "uri": "camera/124577",
      "title": "US-40 MP 243.00 WB : Berthoud Pass",
      "active": true,
      "lon": -105.7776,
      "lat": 39.79776,
      "hls_sources": []
    },
    {
      "uri": "camera/125431",
      "title": "US 550 MP 016.25 SB : 0.4 miles S of US 160 in Durango",
      "active": true,
      "lon": -107.84669,
      "lat": 37.22151,
      "hls_sources": []
    },
    {
      "uri": "camera/125432",
      "title": "CO-62 MP 013.05 EB Dallas Divide",
      "active": true,
      "lon": -107.88081,
      "lat": 38.09425,
      "hls_sources": []
    },
    {
      "uri": "camera/125433",
      "title": "CO-82 W MM62.05 at Independence Pass",
      "active": true,
      "lon": -106.55327,
      "lat": 39.10579,
      "hls_sources": []
    },
    {
      "uri": "camera/125435",
      "title": "US-40 MP 147.20 EB : 5.5 mi W of Rabbit Ears Pass",
      "active": true,
      "lon": -106.73399,
      "lat": 40.37563,
      "hls_sources": []
    },
    {
      "uri": "camera/125436",
      "title": "CO-14 MP 063.00 EB : 1.2 mi W of Cameron Pass",
      "active": true,
      "lon": -105.89848,
      "lat": 40.50439,
      "hls_sources": []
    },
    {
      "uri": "camera/126292",
      "title": "US 50 MP 135.50 EB at CR 26 Blue Mesa Reservoir",
      "active": true,
      "lon": -107.26362,
      "lat": 38.46499,
      "hls_sources": []
    },
    {
      "uri": "camera/126293",
      "title": "CO-149 MP 021.15 SB @ Creede Maintenance Garage",
      "active": true,
      "lon": -106.92287,
      "lat": 37.84584,
      "hls_sources": []
    },
    {
      "uri": "camera/126294",
      "title": "US 40 MP 141.60 EB : 0.1 mi W of Star Ridge Rd",
      "active": true,
      "lon": -106.79242,
      "lat": 40.36993,
      "hls_sources": []
    },
    {
      "uri": "camera/128954",
      "title": "C-470 MP 019.55 WB at S Broadway",
      "active": true,
      "lon": -104.98866,
      "lat": 39.56426,
      "hls_sources": [
        {
          "type": "application/x-mpegURL",
          "src": "https://publicstreamer2.cotrip.org:443/rtplive/470W01955CAM1RHS/playlist.m3u8"
        }
      ]
    },
    {
      "uri": "camera/128956",
      "title": "I-70 MP 231.90 EB at US 40",
      "active": true,
      "lon": -105.65484,
      "lat": 39.75866,
      "hls_sources": [
        {
          "type": "application/x-mpegURL",
          "src": "https://publicstreamer2.cotrip.org:443/rtplive/070E23190CAM1RHS/playlist.m3u8"
        }
      ]
    },
    {
      "uri": "camera/128957",
      "title": "I-70 MP 236.55 EB : 1.1 miles W of Fall River Rd",
      "active": true,
      "lon": -105.57205,
      "lat": 39.75969,
      "hls_sources": [
        {
          "type": "application/x-mpegURL",
          "src": "https://publicstreamer2.cotrip.org:443/rtplive/070E23655CAM1GP2/playlist.m3u8"
        }
      ]
    },
    {
      "uri": "camera/128958",
      "title": "I-25 MP 223.05 NB at 120th Ave/CO 128",
      "active": true,
      "lon": -104.9904,
      "lat": 39.91358,
      "hls_sources": [
        {
          "type": "application/x-mpegURL",
          "src": "https://publicstreamer2.cotrip.org:443/rtplive/025N22305CAM1GP2/playlist.m3u8"
        }
      ]
    },
    {
      "uri": "camera/128959",
      "title": "C-470 MP 025.95 WB : SB I-25 Ramp to WB C-470",
      "active": true,
      "lon": -104.87405,
      "lat": 39.55647,
      "hls_sources": [
        {
          "type": "application/x-mpegURL",
          "src": "https://publicstreamer2.cotrip.org:443/rtplive/470W02595CAM1RP1/playlist.m3u8"
        }
      ]
    },
    {
      "uri": "camera/128960",
      "title": "I-25 MP 195.10 NB at E County Line Rd",
      "active": true,
      "lon": -104.87209,
      "lat": 39.56675,
      "hls_sources": [
        {
          "type": "application/x-mpegURL",
          "src": "https://publicstreamer2.cotrip.org:443/rtplive/025N19510CAM1RHS/playlist.m3u8"
        }
      ]
    },
    {
      "uri": "camera/128961",
      "title": "I-25 MP 184.20 NB at Founders Pkwy/Meadows Pkwy",
      "active": true,
      "lon": -104.86818,
      "lat": 39.41209,
      "hls_sources": [
        {
          "type": "application/x-mpegURL",
          "src": "https://publicstreamer2.cotrip.org:443/rtplive/025N18420CAM1RP1/playlist.m3u8"
        }
      ]
    },
    {
      "uri": "camera/128962",
      "title": "I-25 MP 292.60 SB at WCR 126.5 in Carr",
      "active": true,
      "lon": -104.93844,
      "lat": 40.91154,
      "hls_sources": [
        {
          "type": "application/x-mpegURL",
          "src": "https://publicstreamer2.cotrip.org:443/rtplive/025S29260CAM1RP1/playlist.m3u8"
        }
      ]
    },
    {
      "uri": "camera/128963",
      "title": "CO 93 MP 010.40 SB : 1.7 miles S of CO 128 in Golden",
      "active": true,
      "lon": -105.2408,
      "lat": 39.90997,
      "hls_sources": [
        {
          "type": "application/x-mpegURL",
          "src": "https://publicstreamer2.cotrip.org:443/rtplive/093S01040CAM1RHS/playlist.m3u8"
        }
      ]
    },
    {
      "uri": "camera/128964",
      "title": "I-70 MP 225.50 WB : 0.2 miles W of Woodward St in Silver Plume",
      "active": true,
      "lon": -105.75495,
      "lat": 39.69643,
      "hls_sources": [
        {
          "type": "application/x-mpegURL",
          "src": "https://publicstreamer2.cotrip.org:443/rtplive/070W22550CAM1RHS/playlist.m3u8"
        }
      ]
    },
    {
      "uri": "camera/128965",
      "title": "C-470 MP 024.10 WB at S Quebec St",
      "active": true,
      "lon": -104.90506,
      "lat": 39.56414,
      "hls_sources": [
        {
          "type": "application/x-mpegURL",
          "src": "https://publicstreamer2.cotrip.org:443/rtplive/470W02410CAM1RP1/playlist.m3u8"
        }
      ]
    },
    {
      "uri": "camera/128966",
      "title": "C-470 MP 000.45 EB : 0.5 miles E of I-70",
      "active": true,
      "lon": -105.19308,
      "lat": 39.70623,
      "hls_sources": [
        {
          "type": "application/x-mpegURL",
          "src": "https://publicstreamer2.cotrip.org:443/rtplive/470E00045CAM1RHS/playlist.m3u8"
        }
      ]
    },
    {
      "uri": "camera/128967",
      "title": "I-70 MP 259.10 WB : 0.3 miles E of US 40/CR 93 in Golden",
      "active": true,
      "lon": -105.20135,
      "lat": 39.70301,
      "hls_sources": [
        {
          "type": "application/x-mpegURL",
          "src": "https://publicstreamer2.cotrip.org:443/rtplive/070W25910CAM1MED/playlist.m3u8"
        }
      ]
    },
    {
      "uri": "camera/128968",
      "title": "I-225 MP 003.55 SB : 0.4 miles S of S Parker Rd/CO 83",
      "active": true,
      "lon": -104.85239,
      "lat": 39.65103,
      "hls_sources": [
        {
          "type": "application/x-mpegURL",
          "src": "https://publicstreamer2.cotrip.org:443/rtplive/225S00355CAM1RP2/playlist.m3u8"
        }
      ]
    },
    {
      "uri": "camera/128969",
      "title": "C-470 MP 022.10 EB at S Colorado Blvd",
      "active": true,
      "lon": -104.94176,
      "lat": 39.56058,
      "hls_sources": [
        {
          "type": "application/x-mpegURL",
          "src": "https://publicstreamer2.cotrip.org:443/rtplive/470E02210CAM1RHS/playlist.m3u8"
        }
      ]
    },
    {
      "uri": "camera/128970",
      "title": "I-70 MP 266.95 WB : 0.4 miles W of Kipling St",
      "active": true,
      "lon": -105.11775,
      "lat": 39.78442,
      "hls_sources": [
        {
          "type": "application/x-mpegURL",
          "src": "https://publicstreamer2.cotrip.org:443/rtplive/070W26695CAM1MED/playlist.m3u8"
        }
      ]
    },
    {
      "uri": "camera/128971",
      "title": "US 285 MP 244.65 NB : 0.6 miles N of N Turkey Creek Rd",
      "active": true,
      "lon": -105.2262,
      "lat": 39.59901,
      "hls_sources": [
        {
          "type": "application/x-mpegURL",
          "src": "https://publicstreamer2.cotrip.org:443/rtplive/285N24465CAM1RHS/playlist.m3u8"
        }
      ]
    },
    {
      "uri": "camera/128972",
      "title": "I-70 MP 246.60 EB at Homestead Rd W ",
      "active": true,
      "lon": -105.41,
      "lat": 39.72091,
      "hls_sources": [
        {
          "type": "application/x-mpegURL",
          "src": "https://publicstreamer2.cotrip.org:443/rtplive/070E24660CAM1RP1/playlist.m3u8"
        }
      ]
    },
    {
      "uri": "camera/128975",
      "title": "I-25 MP 206.00 SB : 0.2 miles N of S Downing St",
      "active": true,
      "lon": -104.97661,
      "lat": 39.69131,
      "hls_sources": [
        {
          "type": "application/x-mpegURL",
          "src": "https://publicstreamer2.cotrip.org:443/rtplive/025S20600CAM1RHS/playlist.m3u8"
        }
      ]
    },
    {
      "uri": "camera/128976",
      "title": "US 285 MP 245.15 NB at Twin Forks",
      "active": true,
      "lon": -105.22946,
      "lat": 39.60657,
      "hls_sources": [
        {
          "type": "application/x-mpegURL",
          "src": "https://publicstreamer2.cotrip.org:443/rtplive/285N24515CAM1RHS/playlist.m3u8"
        }
      ]
    },
    {
      "uri": "camera/128977",
      "title": "I-70 MP 237.65 EB at Fall River Rd",
      "active": true,
      "lon": -105.55402,
      "lat": 39.75221,
      "hls_sources": [
        {
          "type": "application/x-mpegURL",
          "src": "https://publicstreamer2.cotrip.org:443/rtplive/070E23765CAM1RP1/playlist.m3u8"
        }
      ]
    },
    {
      "uri": "camera/128978",
      "title": "I-25 MP 146.20 NB at Garden of the Gods Rd",
      "active": true,
      "lon": -104.82917,
      "lat": 38.89825,
      "hls_sources": [
        {
          "type": "application/x-mpegURL",
          "src": "https://publicstreamer2.cotrip.org:443/rtplive/025N14620CAM1RHS/playlist.m3u8"
        }
      ]
    },
    {
      "uri": "camera/128979",
      "title": "I-225 MP 002.30 SB : 1.2 miles N of S Yosemite St",
      "active": true,
      "lon": -104.87749,
      "lat": 39.64353,
      "hls_sources": [
        {
          "type": "application/x-mpegURL",
          "src": "https://publicstreamer2.cotrip.org:443/rtplive/225S00230CAM1RHS/playlist.m3u8"
        }
      ]
    },
    {
      "uri": "camera/128980",
      "title": "US 6 MP 269.10 EB : 1.3 miles W of Tunnel 1",
      "active": true,
      "lon": -105.27074,
      "lat": 39.73963,
      "hls_sources": [
        {
          "type": "application/x-mpegURL",
          "src": "https://publicstreamer2.cotrip.org:443/rtplive/006E26910CAM1RHS/playlist.m3u8"
        }
      ]
    },
    {
      "uri": "camera/128981",
      "title": "I-225 MP 004.00 NB at S Parker Rd/CO 83",
      "active": true,
      "lon": -104.84212,
      "lat": 39.65873,
      "hls_sources": [
        {
          "type": "application/x-mpegURL",
          "src": "https://publicstreamer2.cotrip.org:443/rtplive/225N00400CAM1RHS/playlist.m3u8"
        }
      ]
    },
    {
      "uri": "camera/128982",
      "title": "I-25 MP 211.10 SB at W 23rd Ave",
      "active": true,
      "lon": -105.0172,
      "lat": 39.75143,
      "hls_sources": [
        {
          "type": "application/x-mpegURL",
          "src": "https://publicstreamer2.cotrip.org:443/rtplive/025S21110CAM1RP1/playlist.m3u8"
        }
      ]
    },
    {
      "uri": "camera/128983",
      "title": "I-70 MP 221.30 EB at Stevens Gulch Rd in Bakerville",
      "active": true,
      "lon": -105.80532,
      "lat": 39.6922,
      "hls_sources": [
        {
          "type": "application/x-mpegURL",
          "src": "https://publicstreamer2.cotrip.org:443/rtplive/070E22130CAM1RP1/playlist.m3u8"
        }
      ]
    },
    {
      "uri": "camera/128984",
      "title": "I-25 MP 212.05 NB at 19th St and Wynkoop St",
      "active": true,
      "lon": -104.99768,
      "lat": 39.75542,
      "hls_sources": [
        {
          "type": "application/x-mpegURL",
          "src": "https://publicstreamer2.cotrip.org:443/rtplive/025N21205CAM1RHS/playlist.m3u8"
        }
      ]
    },
    {
      "uri": "camera/128985",
      "title": "I-25 MP 118.75 SB : 0.1 miles S of Rancho Colorado Blvd",
      "active": true,
      "lon": -104.64739,
      "lat": 38.55118,
      "hls_sources": [
        {
          "type": "application/x-mpegURL",
          "src": "https://publicstreamer2.cotrip.org:443/rtplive/025S11875CAM1RHS/playlist.m3u8"
        }
      ]
    },
    {
      "uri": "camera/128987",
      "title": "CO 115 MP 015.10 NB : 1.3 miles N of US 50 in Penrose",
      "active": true,
      "lon": -105.02478,
      "lat": 38.42733,
      "hls_sources": [
        {
          "type": "application/x-mpegURL",
          "src": "https://publicstreamer2.cotrip.org:443/rtplive/115N01510CAM1RHS/playlist.m3u8"
        }
      ]
    },
    {
      "uri": "camera/128988",
      "title": "I-225 MP 007.80 NB : 0.1 miles S of E Alameda Ave",
      "active": true,
      "lon": -104.82654,
      "lat": 39.70962,
      "hls_sources": [
        {
          "type": "application/x-mpegURL",
          "src": "https://publicstreamer2.cotrip.org:443/rtplive/225N00780CAM1GP2/playlist.m3u8"
        }
      ]
    },
    {
      "uri": "camera/128989",
      "title": "I-70 MP 115.95 EB : 0.8 miles W of CO 82 in Glenwood Springs",
      "active": true,
      "lon": -107.33413,
      "lat": 39.55392,
      "hls_sources": [
        {
          "type": "application/x-mpegURL",
          "src": "https://publicstreamer2.cotrip.org:443/rtplive/070E11595CAM1GP2/playlist.m3u8"
        }
      ]
    },
    {
      "uri": "camera/128990",
      "title": "I-25 MP 199.45 SB at E Belleview Ave",
      "active": true,
      "lon": -104.902,
      "lat": 39.62334,
      "hls_sources": [
        {
          "type": "application/x-mpegURL",
          "src": "https://publicstreamer2.cotrip.org:443/rtplive/025S19945CAM1RHS/playlist.m3u8"
        }
      ]
    },
    {
      "uri": "camera/128991",
      "title": "I-70 MP 230.45 EB : 1.4 miles W of US 40",
      "active": true,
      "lon": -105.67604,
      "lat": 39.74642,
      "hls_sources": [
        {
          "type": "application/x-mpegURL",
          "src": "https://publicstreamer2.cotrip.org:443/rtplive/070E23045CAM1MED/playlist.m3u8"
        }
      ]
    },
    {
      "uri": "camera/128992",
      "title": "I-70 MP 250.15 WB : 0.8 miles W of El Rancho in Evergreen",
      "active": true,
      "lon": -105.34786,
      "lat": 39.70896,
      "hls_sources": [
        {
          "type": "application/x-mpegURL",
          "src": "https://publicstreamer2.cotrip.org:443/rtplive/070W25015CAM1GP2/playlist.m3u8"
        }
      ]
    },
    {
      "uri": "camera/128993",
      "title": "US 6 MP 284.40 EB : SB I-25 Ramp to WB 6th Ave",
      "active": true,
      "lon": -105.01501,
      "lat": 39.72496,
      "hls_sources": [
        {
          "type": "application/x-mpegURL",
          "src": "https://publicstreamer2.cotrip.org:443/rtplive/006E28440CAM1RP1/playlist.m3u8"
        }
      ]
    },
    {
      "uri": "camera/128994",
      "title": "C-470 MP 015.55 WB : 0.1 miles E of S Platte Canyon Rd/CO 75",
      "active": true,
      "lon": -105.06018,
      "lat": 39.56658,
      "hls_sources": []
    },
    {
      "uri": "camera/128995",
      "title": "I-70 MP 253.95 EB : 0.4 miles E of Genesee Park",
      "active": true,
      "lon": -105.28707,
      "lat": 39.70895,
      "hls_sources": [
        {
          "type": "application/x-mpegURL",
          "src": "https://publicstreamer2.cotrip.org:443/rtplive/070E25395CAM1RHS/playlist.m3u8"
        }
      ]
    },
    {
      "uri": "camera/128996",
      "title": "I-70 MP 216.60 EB : 0.4 miles E of US 6 Loveland Pass",
      "active": true,
      "lon": -105.88261,
      "lat": 39.68473,
      "hls_sources": [
        {
          "type": "application/x-mpegURL",
          "src": "https://publicstreamer2.cotrip.org:443/rtplive/070E21660CAM2RHS/playlist.m3u8"
        }
      ]
    },
    {
      "uri": "camera/128997",
      "title": "C-470 MP 019.00 EB : 0.6 miles E of Lucent Blvd",
      "active": true,
      "lon": -104.99669,
      "lat": 39.55957,
      "hls_sources": [
        {
          "type": "application/x-mpegURL",
          "src": "https://publicstreamer2.cotrip.org:443/rtplive/470E01900CAM1RHS/playlist.m3u8"
        }
      ]
    },
    {
      "uri": "camera/128998",
      "title": "I-225 MP 010.50 NB : 0.7 miles N of E Colfax Ave",
      "active": true,
      "lon": -104.82523,
      "lat": 39.74851,
      "hls_sources": [
        {
          "type": "application/x-mpegURL",
          "src": "https://publicstreamer2.cotrip.org:443/rtplive/225N01050CAM1RP1/playlist.m3u8"
        }
      ]
    },
    {
      "uri": "camera/128999",
      "title": "I-70 MP 139.55 EB at Trail Gulch Rd in Gypsum",
      "active": true,
      "lon": -106.95508,
      "lat": 39.65169,
      "hls_sources": [
        {
          "type": "application/x-mpegURL",
          "src": "https://publicstreamer2.cotrip.org:443/rtplive/070E13955CAM1RP1/playlist.m3u8"
        }
      ]
    },
    {
      "uri": "camera/129000",
      "title": "I-70 MP 208.90 WB : 3.3 miles E of US 6/CO 9 2 in Silverthorne",
      "active": true,
      "lon": -106.00886,
      "lat": 39.65359,
      "hls_sources": [
        {
          "type": "application/x-mpegURL",
          "src": "https://publicstreamer2.cotrip.org:443/rtplive/070W20890CAM1RHS-2/playlist.m3u8"
        }
      ]
    },
    {
      "uri": "camera/129002",
      "title": "I-25 MP 237.10 SB : 2.6 miles N of CO 52",
      "active": true,
      "lon": -104.98037,
      "lat": 40.11652,
      "hls_sources": [
        {
          "type": "application/x-mpegURL",
          "src": "https://publicstreamer2.cotrip.org:443/rtplive/025S23710CAM1GP3/playlist.m3u8"
        }
      ]
    },
    {
      "uri": "camera/129004",
      "title": "CO 115 MP 040.35 SB at Pine Oaks Rd in Fort Carson",
      "active": true,
      "lon": -104.81886,
      "lat": 38.72001,
      "hls_sources": [
        {
          "type": "application/x-mpegURL",
          "src": "https://publicstreamer2.cotrip.org:443/rtplive/115S04035CAM1NWC/playlist.m3u8"
        }
      ]
    },
    {
      "uri": "camera/129005",
      "title": "I-25 MP 216.95 SB at I-25 HOV N Lane Split",
      "active": true,
      "lon": -104.98274,
      "lat": 39.82688,
      "hls_sources": []
    },
    {
      "uri": "camera/129006",
      "title": "I-225 MP 000.80 SB at DTC Blvd",
      "active": true,
      "lon": -104.89413,
      "lat": 39.6357,
      "hls_sources": [
        {
          "type": "application/x-mpegURL",
          "src": "https://publicstreamer2.cotrip.org:443/rtplive/225S00080CAM1RHS/playlist.m3u8"
        }
      ]
    },
    {
      "uri": "camera/129007",
      "title": "I-25 MP 232.10 SB at Erie Pkwy/Summit Blvd",
      "active": true,
      "lon": -104.98102,
      "lat": 40.04423,
      "hls_sources": [
        {
          "type": "application/x-mpegURL",
          "src": "https://publicstreamer2.cotrip.org:443/rtplive/025S23210CAM1RHS/playlist.m3u8"
        }
      ]
    },
    {
      "uri": "camera/129008",
      "title": "I-225 MP 004.25 SB : 0.3 miles N of S Parker Rd/CO 83",
      "active": true,
      "lon": -104.83874,
      "lat": 39.66116,
      "hls_sources": [
        {
          "type": "application/x-mpegURL",
          "src": "https://publicstreamer2.cotrip.org:443/rtplive/225S00425CAM1RHS/playlist.m3u8"
        }
      ]
    },
    {
      "uri": "camera/129010",
      "title": "I-70 MP 438.45 EB : 0.2 miles E of Rose Ave in Burlington",
      "active": true,
      "lon": -102.25221,
      "lat": 39.30273,
      "hls_sources": [
        {
          "type": "application/x-mpegURL",
          "src": "https://publicstreamer2.cotrip.org:443/rtplive/070E43845CAM1RP1/playlist.m3u8"
        }
      ]
    },
    {
      "uri": "camera/129011",
      "title": "I-25 MP 249.20 NB : 1.0 mile S of CO 56 on Frontage Rd",
      "active": true,
      "lon": -104.97958,
      "lat": 40.29131,
      "hls_sources": [
        {
          "type": "application/x-mpegURL",
          "src": "https://publicstreamer2.cotrip.org:443/rtplive/025N24920CAM1RHS/playlist.m3u8"
        }
      ]
    },
    {
      "uri": "camera/129012",
      "title": "I-25 MP 180.70 SB : 0.2 miles S of Plum Creek Pkwy",
      "active": true,
      "lon": -104.86688,
      "lat": 39.36396,
      "hls_sources": [
        {
          "type": "application/x-mpegURL",
          "src": "https://publicstreamer2.cotrip.org:443/rtplive/025S18070CAM1RP1/playlist.m3u8"
        }
      ]
    },
    {
      "uri": "camera/129014",
      "title": "I-70 MP 155.80 WB : 0.9 miles W of CO 131",
      "active": true,
      "lon": -106.6843,
      "lat": 39.70091,
      "hls_sources": [
        {
          "type": "application/x-mpegURL",
          "src": "https://publicstreamer2.cotrip.org:443/rtplive/070W15580CAM1RHS/playlist.m3u8"
        }
      ]
    },
    {
      "uri": "camera/129015",
      "title": "I-70 MP 170.45 WB : 0.8 miles W of Dowd Junction",
      "active": true,
      "lon": -106.45896,
      "lat": 39.6126,
      "hls_sources": [
        {
          "type": "application/x-mpegURL",
          "src": "https://publicstreamer2.cotrip.org:443/rtplive/070W17045CAM1RHS/playlist.m3u8"
        }
      ]
    },
    {
      "uri": "camera/129016",
      "title": "I-70 MP 157.10 WB : 0.7 miles E of CO 131",
      "active": true,
      "lon": -106.66425,
      "lat": 39.69228,
      "hls_sources": [
        {
          "type": "application/x-mpegURL",
          "src": "https://publicstreamer2.cotrip.org:443/rtplive/070W15710CAM1GP2/playlist.m3u8"
        }
      ]
    },
    {
      "uri": "camera/129017",
      "title": "I-225 MP 001.40 NB at S Yosemite St and NB I-225 Ramps",
      "active": true,
      "lon": -104.88511,
      "lat": 39.63972,
      "hls_sources": [
        {
          "type": "application/x-mpegURL",
          "src": "https://publicstreamer2.cotrip.org:443/rtplive/225N00140CAM1RP1/playlist.m3u8"
        }
      ]
    },
    {
      "uri": "camera/129019",
      "title": "I-76 MP 001.75 WB at Sheridan Blvd/CO 95",
      "active": true,
      "lon": -105.05396,
      "lat": 39.79639,
      "hls_sources": [
        {
          "type": "application/x-mpegURL",
          "src": "https://publicstreamer2.cotrip.org:443/rtplive/076W00175CAM1RHS/playlist.m3u8"
        }
      ]
    },
    {
      "uri": "camera/129020",
      "title": "I-25 MP 242.15 SB : 1.3 miles S of CO 66",
      "active": true,
      "lon": -104.98057,
      "lat": 40.18997,
      "hls_sources": [
        {
          "type": "application/x-mpegURL",
          "src": "https://publicstreamer2.cotrip.org:443/rtplive/025S24215CAM1RHS/playlist.m3u8"
        }
      ]
    },
    {
      "uri": "camera/129021",
      "title": "I-270 MP 002.40 EB at Vasquez Blvd",
      "active": true,
      "lon": -104.93346,
      "lat": 39.79993,
      "hls_sources": [
        {
          "type": "application/x-mpegURL",
          "src": "https://publicstreamer2.cotrip.org:443/rtplive/270E00240CAM1RP1/playlist.m3u8"
        }
      ]
    },
    {
      "uri": "camera/129022",
      "title": "I-70 MP 133.35 WB at Colorado River Rd",
      "active": true,
      "lon": -107.06594,
      "lat": 39.64779,
      "hls_sources": [
        {
          "type": "application/x-mpegURL",
          "src": "https://publicstreamer2.cotrip.org:443/rtplive/070W13335CAM1RHS/playlist.m3u8"
        }
      ]
    },
    {
      "uri": "camera/129024",
      "title": "I-70 MP 145.80 EB : 1.0 mile W of Eby Creek Rd",
      "active": true,
      "lon": -106.8406,
      "lat": 39.65398,
      "hls_sources": [
        {
          "type": "application/x-mpegURL",
          "src": "https://publicstreamer2.cotrip.org:443/rtplive/070E14580CAM1GP2/playlist.m3u8"
        }
      ]
    },
    {
      "uri": "camera/129025",
      "title": "US 24 MP 289.70 EB : 0.2 miles E of Green Mountain Falls Rd",
      "active": true,
      "lon": -105.01381,
      "lat": 38.93987,
      "hls_sources": [
        {
          "type": "application/x-mpegURL",
          "src": "https://publicstreamer2.cotrip.org:443/rtplive/024E28970CAM1RHS/playlist.m3u8"
        }
      ]
    },
    {
      "uri": "camera/129026",
      "title": "C-470 MP 001.20 EB : 0.6 miles W of W Alameda Pkwy",
      "active": true,
      "lon": -105.19088,
      "lat": 39.69579,
      "hls_sources": [
        {
          "type": "application/x-mpegURL",
          "src": "https://publicstreamer2.cotrip.org:443/rtplive/470E00120CAM1GP3/playlist.m3u8"
        }
      ]
    },
    {
      "uri": "camera/129027",
      "title": "C-470 MP 013.95 EB at S Wadsworth Blvd/CO 121",
      "active": true,
      "lon": -105.08443,
      "lat": 39.554,
      "hls_sources": [
        {
          "type": "application/x-mpegURL",
          "src": "https://publicstreamer2.cotrip.org:443/rtplive/470E01395CAM1RHS/playlist.m3u8"
        }
      ]
    },
    {
      "uri": "camera/129028",
      "title": "I-25 MP 221.00 SB at E 104th Ave",
      "active": true,
      "lon": -104.988,
      "lat": 39.88487,
      "hls_sources": [
        {
          "type": "application/x-mpegURL",
          "src": "https://publicstreamer2.cotrip.org:443/rtplive/025S22100CAM1RP1/playlist.m3u8"
        }
      ]
    },
    {
      "uri": "camera/129031",
      "title": "US 6 MP 279.30 WB at Kipling St/CO 391 in Lakewood",
      "active": true,
      "lon": -105.11014,
      "lat": 39.72554,
      "hls_sources": [
        {
          "type": "application/x-mpegURL",
          "src": "https://publicstreamer2.cotrip.org:443/rtplive/006W27930CAM1RP1/playlist.m3u8"
        }
      ]
    },
    {
      "uri": "camera/129032",
      "title": "I-70 MP 116.20 EB : 0.4 miles W of CO 82 in Glenwood Springs",
      "active": true,
      "lon": -107.33064,
      "lat": 39.55097,
      "hls_sources": [
        {
          "type": "application/x-mpegURL",
          "src": "https://publicstreamer2.cotrip.org:443/rtplive/070E11620CAM1RHS/playlist.m3u8"
        }
      ]
    },
    {
      "uri": "camera/129033",
      "title": "CO 9 MP 096.65 SB at Hawn Dr in Frisco",
      "active": true,
      "lon": -106.09443,
      "lat": 39.58583,
      "hls_sources": [
        {
          "type": "application/x-mpegURL",
          "src": "https://publicstreamer2.cotrip.org:443/rtplive/009S09665CAM1SWC/playlist.m3u8"
        }
      ]
    },
    {
      "uri": "camera/129034",
      "title": "I-70 MP 228.50 WB at Georgetown Truck Parking W",
      "active": true,
      "lon": -105.69544,
      "lat": 39.72433,
      "hls_sources": [
        {
          "type": "application/x-mpegURL",
          "src": "https://publicstreamer2.cotrip.org:443/rtplive/070W22850CAM1RP1/playlist.m3u8"
        }
      ]
    },
    {
      "uri": "camera/129035",
      "title": "I-70 MP 328.65 EB : 0.3 miles E of Cedar St in Deer Trail",
      "active": true,
      "lon": -104.0382,
      "lat": 39.61025,
      "hls_sources": [
        {
          "type": "application/x-mpegURL",
          "src": "https://publicstreamer2.cotrip.org:443/rtplive/070E32865CAM1RHS/playlist.m3u8"
        }
      ]
    },
    {
      "uri": "camera/129036",
      "title": "I-70 MP 220.45 WB : 0.9 miles W of Stevens Gulch Rd in Bakerville",
      "active": true,
      "lon": -105.82109,
      "lat": 39.69359,
      "hls_sources": [
        {
          "type": "application/x-mpegURL",
          "src": "https://publicstreamer2.cotrip.org:443/rtplive/070W22045CAM1RHS/playlist.m3u8"
        }
      ]
    },
    {
      "uri": "camera/129037",
      "title": "C-470 MP 024.65 WB : 0.6 miles E of S Quebec St",
      "active": true,
      "lon": -104.8931,
      "lat": 39.56451,
      "hls_sources": [
        {
          "type": "application/x-mpegURL",
          "src": "https://publicstreamer2.cotrip.org:443/rtplive/470W02465CAM1RHS/playlist.m3u8"
        }
      ]
    },
    {
      "uri": "camera/129039",
      "title": "I-25 MP 287.55 SB at Buckeye Rd/CR 82",
      "active": true,
      "lon": -104.96633,
      "lat": 40.84159,
      "hls_sources": [
        {
          "type": "application/x-mpegURL",
          "src": "https://publicstreamer2.cotrip.org:443/rtplive/025S28755CAM1RHS/playlist.m3u8"
        }
      ]
    },
    {
      "uri": "camera/129040",
      "title": "US 6 MP 260.30 WB at CO 119",
      "active": true,
      "lon": -105.39852,
      "lat": 39.74589,
      "hls_sources": [
        {
          "type": "application/x-mpegURL",
          "src": "https://publicstreamer2.cotrip.org:443/rtplive/006W26030CAM1RHS/playlist.m3u8"
        }
      ]
    },
    {
      "uri": "camera/129041",
      "title": "I-25 MP 124.00 SB : 0.6 miles S of Ray Nixon Rd",
      "active": true,
      "lon": -104.68899,
      "lat": 38.61971,
      "hls_sources": [
        {
          "type": "application/x-mpegURL",
          "src": "https://publicstreamer2.cotrip.org:443/rtplive/025S12400CAM1RHS/playlist.m3u8"
        }
      ]
    },
    {
      "uri": "camera/129042",
      "title": "I-70 MP 268.95 WB at Wadsworth Blvd",
      "active": true,
      "lon": -105.08383,
      "lat": 39.78582,
      "hls_sources": [
        {
          "type": "application/x-mpegURL",
          "src": "https://publicstreamer2.cotrip.org:443/rtplive/070W26895CAM1RHS/playlist.m3u8"
        }
      ]
    },
    {
      "uri": "camera/129043",
      "title": "I-25 MP 259.35 SB at Crossroads Blvd",
      "active": true,
      "lon": -104.99209,
      "lat": 40.43636,
      "hls_sources": [
        {
          "type": "application/x-mpegURL",
          "src": "https://publicstreamer2.cotrip.org:443/rtplive/025S25935CAM1RHS/playlist.m3u8"
        }
      ]
    },
    {
      "uri": "camera/129044",
      "title": "I-25 MP 179.70 NB : 1.2 miles S of Plum Creek Pkwy",
      "active": true,
      "lon": -104.87189,
      "lat": 39.34959,
      "hls_sources": [
        {
          "type": "application/x-mpegURL",
          "src": "https://publicstreamer2.cotrip.org:443/rtplive/025N17970CAM1GP2/playlist.m3u8"
        }
      ]
    },
    {
      "uri": "camera/129045",
      "title": "I-225 MP 008.45 SB : 0.7 miles N of E Alameda Ave",
      "active": true,
      "lon": -104.82711,
      "lat": 39.71854,
      "hls_sources": [
        {
          "type": "application/x-mpegURL",
          "src": "https://publicstreamer2.cotrip.org:443/rtplive/225S00845CAM1RHS/playlist.m3u8"
        }
      ]
    },
    {
      "uri": "camera/129046",
      "title": "I-270 MP 000.50 EB at York St",
      "active": true,
      "lon": -104.95899,
      "lat": 39.81829,
      "hls_sources": [
        {
          "type": "application/x-mpegURL",
          "src": "https://publicstreamer2.cotrip.org:443/rtplive/270E00050CAM1RP1/playlist.m3u8"
        }
      ]
    },
    {
      "uri": "camera/129047",
      "title": "I-76 MP 036.50 EB at CR 53 in Keenesburg",
      "active": true,
      "lon": -104.56578,
      "lat": 40.11023,
      "hls_sources": [
        {
          "type": "application/x-mpegURL",
          "src": "https://publicstreamer2.cotrip.org:443/rtplive/076E03650CAM1RHS/playlist.m3u8"
        }
      ]
    },
    {
      "uri": "camera/129048",
      "title": "US 6 MP 267.75 WB : 2.3 miles E of Tunnel 2",
      "active": true,
      "lon": -105.29088,
      "lat": 39.7441,
      "hls_sources": [
        {
          "type": "application/x-mpegURL",
          "src": "https://publicstreamer2.cotrip.org:443/rtplive/006W26775CAM1RHS/playlist.m3u8"
        }
      ]
    },
    {
      "uri": "camera/129049",
      "title": "I-70 MP 205.75 WB : 0.3 miles E of US 6/CO 9 in Silverthorne",
      "active": true,
      "lon": -106.06266,
      "lat": 39.63074,
      "hls_sources": [
        {
          "type": "application/x-mpegURL",
          "src": "https://publicstreamer2.cotrip.org:443/rtplive/070W20575CAM1RHS/playlist.m3u8"
        }
      ]
    },
    {
      "uri": "camera/129050",
      "title": "I-25 MP 235.15 SB at CO 52",
      "active": true,
      "lon": -104.98082,
      "lat": 40.08806,
      "hls_sources": [
        {
          "type": "application/x-mpegURL",
          "src": "https://publicstreamer2.cotrip.org:443/rtplive/025S23515CAM1RHS/playlist.m3u8"
        }
      ]
    },
    {
      "uri": "camera/129051",
      "title": "US 6 MP 261.50 EB : 1.3 miles E of CO 119",
      "active": true,
      "lon": -105.38291,
      "lat": 39.73755,
      "hls_sources": [
        {
          "type": "application/x-mpegURL",
          "src": "https://publicstreamer2.cotrip.org:443/rtplive/006E26150CAM1RHS/playlist.m3u8"
        }
      ]
    },
    {
      "uri": "camera/129053",
      "title": "I-70 MP 231.25 WB : 0.6 miles W of US 40",
      "active": true,
      "lon": -105.66315,
      "lat": 39.75177,
      "hls_sources": [
        {
          "type": "application/x-mpegURL",
          "src": "https://publicstreamer2.cotrip.org:443/rtplive/070W23125CAM1RHS/playlist.m3u8"
        }
      ]
    },
    {
      "uri": "camera/129054",
      "title": "I-25 MP 111.50 SB at Pueblo South Rest Area",
      "active": true,
      "lon": -104.60644,
      "lat": 38.45225,
      "hls_sources": []
    },
    {
      "uri": "camera/129055",
      "title": "I-70 MP 154.20 EB : 2.8 miles W of CO 131",
      "active": true,
      "lon": -106.70725,
      "lat": 39.71093,
      "hls_sources": [
        {
          "type": "application/x-mpegURL",
          "src": "https://publicstreamer2.cotrip.org:443/rtplive/070E15420CAM1GP2/playlist.m3u8"
        }
      ]
    },
    {
      "uri": "camera/129056",
      "title": "I-70 MP 187.25 WB : 2.6 miles W of Vail Pass Summit",
      "active": true,
      "lon": -106.23739,
      "lat": 39.56594,
      "hls_sources": [
        {
          "type": "application/x-mpegURL",
          "src": "https://publicstreamer2.cotrip.org:443/rtplive/070W18725CAM1RHS/playlist.m3u8"
        }
      ]
    },
    {
      "uri": "camera/129057",
      "title": "CO 224 MP 000.60 WB at I-25",
      "active": true,
      "lon": -104.98113,
      "lat": 39.82387,
      "hls_sources": [
        {
          "type": "application/x-mpegURL",
          "src": "https://publicstreamer2.cotrip.org:443/rtplive/224W00060CAM1RHS/playlist.m3u8"
        }
      ]
    },
    {
      "uri": "camera/129059",
      "title": "I-25 MP 213.65 NB : NB I-25 Ramp to WB I-70",
      "active": true,
      "lon": -104.98837,
      "lat": 39.77961,
      "hls_sources": [
        {
          "type": "application/x-mpegURL",
          "src": "https://publicstreamer2.cotrip.org:443/rtplive/025N21365CAM1RP1/playlist.m3u8"
        }
      ]
    },
    {
      "uri": "camera/129060",
      "title": "I-25 MP 101.85 SB : 0.4 miles N of US 50/CO 47 in Pueblo",
      "active": true,
      "lon": -104.61532,
      "lat": 38.31381,
      "hls_sources": [
        {
          "type": "application/x-mpegURL",
          "src": "https://publicstreamer2.cotrip.org:443/rtplive/025S10185CAM1RHS/playlist.m3u8"
        }
      ]
    },
    {
      "uri": "camera/129061",
      "title": "I-25 MP 202.70 NB at E Yale Ave",
      "active": true,
      "lon": -104.92573,
      "lat": 39.66711,
      "hls_sources": [
        {
          "type": "application/x-mpegURL",
          "src": "https://publicstreamer2.cotrip.org:443/rtplive/025N20270CAM1RHS/playlist.m3u8"
        }
      ]
    },
    {
      "uri": "camera/129062",
      "title": "I-70 MP 238.05 EB : 0.3 miles E of Fall River Rd",
      "active": true,
      "lon": -105.54823,
      "lat": 39.7492,
      "hls_sources": [
        {
          "type": "application/x-mpegURL",
          "src": "https://publicstreamer2.cotrip.org:443/rtplive/070E23805CAM1MED/playlist.m3u8"
        }
      ]
    },
    {
      "uri": "camera/129063",
      "title": "I-25 MP 240.15 SB at CO 119",
      "active": true,
      "lon": -104.97929,
      "lat": 40.16112,
      "hls_sources": [
        {
          "type": "application/x-mpegURL",
          "src": "https://publicstreamer2.cotrip.org:443/rtplive/025S24015CAM1RHS/playlist.m3u8"
        }
      ]
    },
    {
      "uri": "camera/129064",
      "title": "I-70 MP 118.70 EB at No Name Lane",
      "active": true,
      "lon": -107.29204,
      "lat": 39.56063,
      "hls_sources": [
        {
          "type": "application/x-mpegURL",
          "src": "https://publicstreamer2.cotrip.org:443/rtplive/070E11870CAM1RP1/playlist.m3u8"
        }
      ]
    },
    {
      "uri": "camera/129065",
      "title": "I-70 MP 260.85 EB : 0.2 miles W of W 6th Ave",
      "active": true,
      "lon": -105.18163,
      "lat": 39.72342,
      "hls_sources": [
        {
          "type": "application/x-mpegURL",
          "src": "https://publicstreamer2.cotrip.org:443/rtplive/070E26085CAM1RHS/playlist.m3u8"
        }
      ]
    },
    {
      "uri": "camera/129066",
      "title": "I-270 MP 003.95 WB : 0.7 miles W of Quebec St",
      "active": true,
      "lon": -104.90674,
      "lat": 39.78948,
      "hls_sources": [
        {
          "type": "application/x-mpegURL",
          "src": "https://publicstreamer2.cotrip.org:443/rtplive/270W00395CAM1MED/playlist.m3u8"
        }
      ]
    },
    {
      "uri": "camera/129068",
      "title": "I-25 MP 245.20 NB at WCR 34 Mead",
      "active": true,
      "lon": -104.97935,
      "lat": 40.2336,
      "hls_sources": [
        {
          "type": "application/x-mpegURL",
          "src": "https://publicstreamer2.cotrip.org:443/rtplive/025N24520CAM1RP1/playlist.m3u8"
        }
      ]
    },
    {
      "uri": "camera/129069",
      "title": "US 34 MP 096.40 WB at WB US 34 to NB I-25 Ramp in Loveland",
      "active": true,
      "lon": -104.99025,
      "lat": 40.40751,
      "hls_sources": [
        {
          "type": "application/x-mpegURL",
          "src": "https://publicstreamer2.cotrip.org:443/rtplive/034W09640CAM1RP1/playlist.m3u8"
        }
      ]
    },
    {
      "uri": "camera/129070",
      "title": "US 34 MP 097.65 EB : 0.2 miles W of N CR 3",
      "active": true,
      "lon": -104.96749,
      "lat": 40.40726,
      "hls_sources": [
        {
          "type": "application/x-mpegURL",
          "src": "https://publicstreamer2.cotrip.org:443/rtplive/034E09765CAM1RHS/playlist.m3u8"
        }
      ]
    },
    {
      "uri": "camera/129072",
      "title": "US 34 MP 100.85 WB at WCR 17",
      "active": true,
      "lon": -104.9079,
      "lat": 40.40645,
      "hls_sources": [
        {
          "type": "application/x-mpegURL",
          "src": "https://publicstreamer2.cotrip.org:443/rtplive/034W10085CAM1RHS/playlist.m3u8"
        }
      ]
    },
    {
      "uri": "camera/129073",
      "title": "US 34 MP 102.80 WB at CO 257",
      "active": true,
      "lon": -104.87015,
      "lat": 40.40578,
      "hls_sources": [
        {
          "type": "application/x-mpegURL",
          "src": "https://publicstreamer2.cotrip.org:443/rtplive/034W10280CAM1RP1/playlist.m3u8"
        }
      ]
    },
    {
      "uri": "camera/129077",
      "title": "US 36 MP 039.20 EB at CO 157/Foothills Pkwy",
      "active": true,
      "lon": -105.23262,
      "lat": 39.98517,
      "hls_sources": [
        {
          "type": "application/x-mpegURL",
          "src": "https://publicstreamer2.cotrip.org:443/rtplive/036E03920CAM1RP1/playlist.m3u8"
        }
      ]
    },
    {
      "uri": "camera/129078",
      "title": "US 36 MP 040.45 EB at S Cherryvale Rd",
      "active": true,
      "lon": -105.21153,
      "lat": 39.9759,
      "hls_sources": [
        {
          "type": "application/x-mpegURL",
          "src": "https://publicstreamer2.cotrip.org:443/rtplive/036E04040CAM1RHS/playlist.m3u8"
        }
      ]
    },
    {
      "uri": "camera/129079",
      "title": "US 36 MP 041.90 EB : 1.7 W of McCaslin Blvd",
      "active": true,
      "lon": -105.18859,
      "lat": 39.96656,
      "hls_sources": [
        {
          "type": "application/x-mpegURL",
          "src": "https://publicstreamer2.cotrip.org:443/rtplive/036E04190CAM1RHS/playlist.m3u8"
        }
      ]
    },
    {
      "uri": "camera/129081",
      "title": "US 36 MP 044.40 EB : 0.1 miles W of S 88th St",
      "active": true,
      "lon": -105.14946,
      "lat": 39.94699,
      "hls_sources": [
        {
          "type": "application/x-mpegURL",
          "src": "https://publicstreamer2.cotrip.org:443/rtplive/036E04440CAM1RHS/playlist.m3u8"
        }
      ]
    },
    {
      "uri": "camera/129082",
      "title": "US 36 MP 044.90 EB : 0.5 miles E of S 88th St",
      "active": true,
      "lon": -105.14146,
      "lat": 39.94182,
      "hls_sources": []
    },
    {
      "uri": "camera/129083",
      "title": "CO 114 MP 061.50 WB : 0.2 mi W of 8th St/US 285 Saguache",
      "active": true,
      "lon": -106.1455,
      "lat": 38.08902,
      "hls_sources": [
        {
          "type": "application/x-mpegURL",
          "src": "https://publicstreamer2.cotrip.org:443/rtplive/114W06150CAM1RHS/playlist.m3u8"
        }
      ]
    },
    {
      "uri": "camera/129084",
      "title": "I-70 MP 231.75 EB : 0.1 miles W of US 40",
      "active": true,
      "lon": -105.58977,
      "lat": 39.76429,
      "hls_sources": [
        {
          "type": "application/x-mpegURL",
          "src": "https://publicstreamer2.cotrip.org:443/rtplive/070E23175CAM1MED/playlist.m3u8"
        }
      ]
    },
    {
      "uri": "camera/129085",
      "title": "I-70 MP 235.50 EB : 0.6 miles E of Stanley Rd in Dumont",
      "active": true,
      "lon": -105.65706,
      "lat": 39.7571,
      "hls_sources": [
        {
          "type": "application/x-mpegURL",
          "src": "https://publicstreamer2.cotrip.org:443/rtplive/070E23550CAM1ML1/playlist.m3u8"
        }
      ]
    },
    {
      "uri": "camera/129086",
      "title": "US 6 MP 271.60 WB at CO 58/CO 93 in Golden",
      "active": true,
      "lon": -105.23612,
      "lat": 39.75454,
      "hls_sources": [
        {
          "type": "application/x-mpegURL",
          "src": "https://publicstreamer2.cotrip.org:443/rtplive/006W27160CAM1SEC/playlist.m3u8"
        }
      ]
    },
    {
      "uri": "camera/129087",
      "title": "CO 9 MP 087.20 NB at Airport Rd in Breckenridge",
      "active": true,
      "lon": -106.04736,
      "lat": 39.49036,
      "hls_sources": [
        {
          "type": "application/x-mpegURL",
          "src": "https://publicstreamer2.cotrip.org:443/rtplive/009N08720CAM1NEC/playlist.m3u8"
        }
      ]
    },
    {
      "uri": "camera/129088",
      "title": "CO 9 MP 090.25 NB at Tiger Rd/Shores Ln in Breckenridge",
      "active": true,
      "lon": -106.04376,
      "lat": 39.53225,
      "hls_sources": [
        {
          "type": "application/x-mpegURL",
          "src": "https://publicstreamer2.cotrip.org:443/rtplive/009N09025CAM1NEC/playlist.m3u8"
        }
      ]
    },
    {
      "uri": "camera/129089",
      "title": "US 24 MP 297.55 EB at Cave of the Winds Rd in Manitou Springs",
      "active": true,
      "lon": -104.92147,
      "lat": 38.86551,
      "hls_sources": [
        {
          "type": "application/x-mpegURL",
          "src": "https://publicstreamer2.cotrip.org:443/rtplive/024E29755CAM1SWC/playlist.m3u8"
        }
      ]
    },
    {
      "uri": "camera/129090",
      "title": "US 50 MP 278.70 EB at 9th St",
      "active": true,
      "lon": -105.23492,
      "lat": 38.44205,
      "hls_sources": [
        {
          "type": "application/x-mpegURL",
          "src": "https://publicstreamer2.cotrip.org:443/rtplive/050E27870CAM1SWC/playlist.m3u8"
        }
      ]
    },
    {
      "uri": "camera/129091",
      "title": "I-225 MP 009.95 SB at E Colfax Ave",
      "active": true,
      "lon": -104.82613,
      "lat": 39.74044,
      "hls_sources": [
        {
          "type": "application/x-mpegURL",
          "src": "https://publicstreamer2.cotrip.org:443/rtplive/225S00995CAM1NWC/playlist.m3u8"
        }
      ]
    },
    {
      "uri": "camera/129093",
      "title": "I-70 MP 261.65 WB at W Colfax Ave",
      "active": true,
      "lon": -105.17003,
      "lat": 39.73135,
      "hls_sources": []
    },
    {
      "uri": "camera/129097",
      "title": "I-70 MP 283.55 EB at Pena Blvd Ramp",
      "active": true,
      "lon": -104.80944,
      "lat": 39.77057,
      "hls_sources": [
        {
          "type": "application/x-mpegURL",
          "src": "https://publicstreamer2.cotrip.org:443/rtplive/070E28355CAM1RP2/playlist.m3u8"
        }
      ]
    },
    {
      "uri": "camera/129098",
      "title": "I-70 MP 280.60 WB at Havana St Underpass",
      "active": true,
      "lon": -104.86563,
      "lat": 39.77604,
      "hls_sources": [
        {
          "type": "application/x-mpegURL",
          "src": "https://publicstreamer2.cotrip.org:443/rtplive/070W28060CAM1RHS/playlist.m3u8"
        }
      ]
    },
    {
      "uri": "camera/129099",
      "title": "I-70 MP 277.90 EB : 0.8 miles E of Quebec St",
      "active": true,
      "lon": -104.9154,
      "lat": 39.77808,
      "hls_sources": [
        {
          "type": "application/x-mpegURL",
          "src": "https://publicstreamer2.cotrip.org:443/rtplive/070E27790CAM1RHS/playlist.m3u8"
        }
      ]
    },
    {
      "uri": "camera/129100",
      "title": "I-70 MP 282.80 WB at I-225",
      "active": true,
      "lon": -104.82426,
      "lat": 39.7724,
      "hls_sources": [
        {
          "type": "application/x-mpegURL",
          "src": "https://publicstreamer2.cotrip.org:443/rtplive/070W28280CAM1RHS/playlist.m3u8"
        }
      ]
    },
    {
      "uri": "camera/129101",
      "title": "I-70 MP 282.20 WB : 0.4 miles W of I-225",
      "active": true,
      "lon": -104.83526,
      "lat": 39.77331,
      "hls_sources": [
        {
          "type": "application/x-mpegURL",
          "src": "https://publicstreamer2.cotrip.org:443/rtplive/070W28220CAM1RHS/playlist.m3u8"
        }
      ]
    },
    {
      "uri": "camera/129102",
      "title": "I-70 MP 281.50 EB at Peoria St",
      "active": true,
      "lon": -104.84781,
      "lat": 39.77385,
      "hls_sources": [
        {
          "type": "application/x-mpegURL",
          "src": "https://publicstreamer2.cotrip.org:443/rtplive/070E28150CAM1RHS/playlist.m3u8"
        }
      ]
    },
    {
      "uri": "camera/129103",
      "title": "I-70 MP 281.05 EB : 0.6 miles E of Havana St",
      "active": true,
      "lon": -104.85673,
      "lat": 39.77467,
      "hls_sources": [
        {
          "type": "application/x-mpegURL",
          "src": "https://publicstreamer2.cotrip.org:443/rtplive/070E28105CAM1RHS/playlist.m3u8"
        }
      ]
    },
    {
      "uri": "camera/129104",
      "title": "CO-391 MP 009.45 SB at W 48th Ave/I-70 Frontage Rd S",
      "active": true,
      "lon": -105.10981,
      "lat": 39.78282,
      "hls_sources": [
        {
          "type": "application/x-mpegURL",
          "src": "https://publicstreamer2.cotrip.org:443/rtplive/391S00945CAM1SWC/playlist.m3u8"
        }
      ]
    },
    {
      "uri": "camera/129105",
      "title": "C-470 MP 012.45 WB at WB C-470 Ramp to S Kipling Pkwy",
      "active": true,
      "lon": -105.10978,
      "lat": 39.56093,
      "hls_sources": [
        {
          "type": "application/x-mpegURL",
          "src": "https://publicstreamer2.cotrip.org:443/rtplive/470W01245CAM1NEC/playlist.m3u8"
        }
      ]
    },
    {
      "uri": "camera/129106",
      "title": "CO-121 MP 016.95 NB at WB I-70 Ramp to SB Wadsworth Blvd",
      "active": true,
      "lon": -105.08118,
      "lat": 39.78829,
      "hls_sources": [
        {
          "type": "application/x-mpegURL",
          "src": "https://publicstreamer2.cotrip.org:443/rtplive/121N01695CAM1NEC/playlist.m3u8"
        }
      ]
    },
    {
      "uri": "camera/129107",
      "title": "CO-391 MP 007.85 SB at W 32nd Ave",
      "active": true,
      "lon": -105.10977,
      "lat": 39.76191,
      "hls_sources": [
        {
          "type": "application/x-mpegURL",
          "src": "https://publicstreamer2.cotrip.org:443/rtplive/391S00785CAM1SWC/playlist.m3u8"
        }
      ]
    },
    {
      "uri": "camera/129108",
      "title": "CO-391 MP 008.60 SB at W 39th Ave",
      "active": true,
      "lon": -105.10987,
      "lat": 39.77111,
      "hls_sources": []
    },
    {
      "uri": "camera/129109",
      "title": "I-70 MP 267.40 EB at Kipling St to EB I-70 Ramp",
      "active": true,
      "lon": -105.10964,
      "lat": 39.78381,
      "hls_sources": [
        {
          "type": "application/x-mpegURL",
          "src": "https://publicstreamer2.cotrip.org:443/rtplive/070E26740CAM1NEC/playlist.m3u8"
        }
      ]
    },
    {
      "uri": "camera/129110",
      "title": "US 287 MP 297.45 SB at Upham St/CO 128",
      "active": true,
      "lon": -105.07835,
      "lat": 39.9139,
      "hls_sources": [
        {
          "type": "application/x-mpegURL",
          "src": "https://publicstreamer2.cotrip.org:443/rtplive/287S29745CAM1SEC/playlist.m3u8"
        }
      ]
    },
    {
      "uri": "camera/129111",
      "title": "US 287 MP 298.85 NB at W 10th Ave",
      "active": true,
      "lon": -105.0905,
      "lat": 39.92869,
      "hls_sources": [
        {
          "type": "application/x-mpegURL",
          "src": "https://publicstreamer2.cotrip.org:443/rtplive/287N29885CAM1SEC/playlist.m3u8"
        }
      ]
    },
    {
      "uri": "camera/129112",
      "title": "US 287 MP 300.85 NB at W Dillon Rd/NW Pkwy South Ramp",
      "active": true,
      "lon": -105.09002,
      "lat": 39.95811,
      "hls_sources": [
        {
          "type": "application/x-mpegURL",
          "src": "https://publicstreamer2.cotrip.org:443/rtplive/287N30085CAM1NEC/playlist.m3u8"
        }
      ]
    },
    {
      "uri": "camera/129113",
      "title": "US 287 MP 300.95 NB at W Dillon Rd/NW Pkwy North Ramp",
      "active": true,
      "lon": -105.09021,
      "lat": 39.95969,
      "hls_sources": [
        {
          "type": "application/x-mpegURL",
          "src": "https://publicstreamer2.cotrip.org:443/rtplive/287N30095CAM1MED/playlist.m3u8"
        }
      ]
    },
    {
      "uri": "camera/129114",
      "title": "US 287 MP 301.80 NB at Empire Rd/CO 42",
      "active": true,
      "lon": -105.09004,
      "lat": 39.97225,
      "hls_sources": [
        {
          "type": "application/x-mpegURL",
          "src": "https://publicstreamer2.cotrip.org:443/rtplive/287N30180CAM1SEC/playlist.m3u8"
        }
      ]
    },
    {
      "uri": "camera/129115",
      "title": "US 287 MP 302.30 SB at S Public Rd in Lafayette",
      "active": true,
      "lon": -105.09378,
      "lat": 39.97778,
      "hls_sources": [
        {
          "type": "application/x-mpegURL",
          "src": "https://publicstreamer2.cotrip.org:443/rtplive/287S30230CAM1SWC/playlist.m3u8"
        }
      ]
    },
    {
      "uri": "camera/129116",
      "title": "US 287 MP 303.15 SB at W South Boulder Rd",
      "active": true,
      "lon": -105.09859,
      "lat": 39.98709,
      "hls_sources": [
        {
          "type": "application/x-mpegURL",
          "src": "https://publicstreamer2.cotrip.org:443/rtplive/287S30315CAM1NWC/playlist.m3u8"
        }
      ]
    },
    {
      "uri": "camera/129117",
      "title": "I-70 MP 276.55 WB at Colorado Blvd to WB I-70 Ramp",
      "active": true,
      "lon": -104.94132,
      "lat": 39.78053,
      "hls_sources": [
        {
          "type": "application/x-mpegURL",
          "src": "https://publicstreamer2.cotrip.org:443/rtplive/070W27655CAM1SWC/playlist.m3u8"
        }
      ]
    },
    {
      "uri": "camera/129118",
      "title": "I-70 MP 277.05 WB at Dahlia St",
      "active": true,
      "lon": -104.93141,
      "lat": 39.78034,
      "hls_sources": [
        {
          "type": "application/x-mpegURL",
          "src": "https://publicstreamer2.cotrip.org:443/rtplive/070W27705CAM1RHS/playlist.m3u8"
        }
      ]
    },
    {
      "uri": "camera/129119",
      "title": "I-70 MP 276.35 EB at Monroe St Overpass",
      "active": true,
      "lon": -104.94527,
      "lat": 39.78,
      "hls_sources": [
        {
          "type": "application/x-mpegURL",
          "src": "https://publicstreamer2.cotrip.org:443/rtplive/070E27635CAM1RP1/playlist.m3u8"
        }
      ]
    },
    {
      "uri": "camera/129120",
      "title": "I-70 MP 274.60 EB at Washington St",
      "active": true,
      "lon": -104.97887,
      "lat": 39.77927,
      "hls_sources": [
        {
          "type": "application/x-mpegURL",
          "src": "https://publicstreamer2.cotrip.org:443/rtplive/070E27460CAM1RHS/playlist.m3u8"
        }
      ]
    },
    {
      "uri": "camera/129121",
      "title": "I-70 MP 274.75 WB : 0.1 miles E of Washington St",
      "active": true,
      "lon": -104.97648,
      "lat": 39.77987,
      "hls_sources": [
        {
          "type": "application/x-mpegURL",
          "src": "https://publicstreamer2.cotrip.org:443/rtplive/070W27475CAM1RHS/playlist.m3u8"
        }
      ]
    },
    {
      "uri": "camera/129122",
      "title": "I-70 MP 276.60 EB at Colorado Blvd to EB I-70 Ramp",
      "active": true,
      "lon": -104.94055,
      "lat": 39.77983,
      "hls_sources": [
        {
          "type": "application/x-mpegURL",
          "src": "https://publicstreamer2.cotrip.org:443/rtplive/070E27660CAM1NEC/playlist.m3u8"
        }
      ]
    },
    {
      "uri": "camera/129123",
      "title": "I-70 MP 275.55 EB at York St",
      "active": true,
      "lon": -104.95952,
      "lat": 39.7801,
      "hls_sources": [
        {
          "type": "application/x-mpegURL",
          "src": "https://publicstreamer2.cotrip.org:443/rtplive/070E27555CAM1RP1/playlist.m3u8"
        }
      ]
    },
    {
      "uri": "camera/129124",
      "title": "I-70 MP 275.65 EB at W Cover on I-70",
      "active": true,
      "lon": -104.95746,
      "lat": 39.78034,
      "hls_sources": []
    },
    {
      "uri": "camera/129125",
      "title": "I-70 MP 283.50 WB at Chambers Rd",
      "active": true,
      "lon": -104.81014,
      "lat": 39.77147,
      "hls_sources": [
        {
          "type": "application/x-mpegURL",
          "src": "https://publicstreamer2.cotrip.org:443/rtplive/070W28350CAM1SWC/playlist.m3u8"
        }
      ]
    },
    {
      "uri": "camera/129126",
      "title": "I-70 MP 275.20 WB : 0.1 miles W of Brighton Blvd",
      "active": true,
      "lon": -104.96808,
      "lat": 39.78025,
      "hls_sources": [
        {
          "type": "application/x-mpegURL",
          "src": "https://publicstreamer2.cotrip.org:443/rtplive/070W27520CAM1RHS/playlist.m3u8"
        }
      ]
    },
    {
      "uri": "camera/129127",
      "title": "I-70 MP 274.00 EB at Washington St and SB I-25 Ramps",
      "active": true,
      "lon": -104.99114,
      "lat": 39.7792,
      "hls_sources": []
    },
    {
      "uri": "camera/129128",
      "title": "I-70 MP 273.65 EB : 0.4 miles W of I-25",
      "active": true,
      "lon": -104.9959,
      "lat": 39.78148,
      "hls_sources": [
        {
          "type": "application/x-mpegURL",
          "src": "https://publicstreamer2.cotrip.org:443/rtplive/070E27365CAM1RP2/playlist.m3u8"
        }
      ]
    },
    {
      "uri": "camera/129131",
      "title": "US 85 MP 248.20 SB at CR 26 in Platteville",
      "active": true,
      "lon": -104.81668,
      "lat": 40.1737,
      "hls_sources": [
        {
          "type": "application/x-mpegURL",
          "src": "https://publicstreamer2.cotrip.org:443/rtplive/085S24820CAM1RHS/playlist.m3u8"
        }
      ]
    },
    {
      "uri": "camera/129132",
      "title": "US 85 MP 242.85 NB : 0.2 miles N of 14th St in Fort Lupton",
      "active": true,
      "lon": -104.81073,
      "lat": 40.0971,
      "hls_sources": [
        {
          "type": "application/x-mpegURL",
          "src": "https://publicstreamer2.cotrip.org:443/rtplive/085N24285CAM1RHS/playlist.m3u8"
        }
      ]
    },
    {
      "uri": "camera/129133",
      "title": "US 85 MP 252.55 SB : 0.3 miles N of CR 34 in Platteville",
      "active": true,
      "lon": -104.82124,
      "lat": 40.23615,
      "hls_sources": [
        {
          "type": "application/x-mpegURL",
          "src": "https://publicstreamer2.cotrip.org:443/rtplive/085S25255CAM1RHS/playlist.m3u8"
        }
      ]
    },
    {
      "uri": "camera/129135",
      "title": "US 85 MP 235.10 NB at W Bridge St/CO 7 in Brighton",
      "active": true,
      "lon": -104.82366,
      "lat": 39.98654,
      "hls_sources": [
        {
          "type": "application/x-mpegURL",
          "src": "https://publicstreamer2.cotrip.org:443/rtplive/085N23510CAM1RHS/playlist.m3u8"
        }
      ]
    },
    {
      "uri": "camera/129138",
      "title": "I-25 MP 258.30 SB : 1.0 mile N of US 34 in Loveland",
      "active": true,
      "lon": -104.99312,
      "lat": 40.42259,
      "hls_sources": [
        {
          "type": "application/x-mpegURL",
          "src": "https://publicstreamer2.cotrip.org:443/rtplive/025S25830CAM1RHS/playlist.m3u8"
        }
      ]
    },
    {
      "uri": "camera/129139",
      "title": "I-25 MP 264.35 SB : 1.0 mile S of E Harmony Rd",
      "active": true,
      "lon": -104.992,
      "lat": 40.50919,
      "hls_sources": [
        {
          "type": "application/x-mpegURL",
          "src": "https://publicstreamer2.cotrip.org:443/rtplive/025S26435CAM1RHS/playlist.m3u8"
        }
      ]
    },
    {
      "uri": "camera/129140",
      "title": "I-25 MP 212.10 NB at 20th St and Market St",
      "active": true,
      "lon": -104.99332,
      "lat": 39.75342,
      "hls_sources": [
        {
          "type": "application/x-mpegURL",
          "src": "https://publicstreamer2.cotrip.org:443/rtplive/025N21210CAM1SEC/playlist.m3u8"
        }
      ]
    },
    {
      "uri": "camera/129141",
      "title": "CO 115 MP 037.85 NB : 0.4 miles S of Old Canon City Rd",
      "active": true,
      "lon": -104.83886,
      "lat": 38.68917,
      "hls_sources": [
        {
          "type": "application/x-mpegURL",
          "src": "https://publicstreamer2.cotrip.org:443/rtplive/115N03785CAM1RHS/playlist.m3u8"
        }
      ]
    },
    {
      "uri": "camera/129143",
      "title": "I-70 MP 096.40 EB : 1.2 miles W of 9th St in Silt",
      "active": true,
      "lon": -107.67177,
      "lat": 39.54332,
      "hls_sources": [
        {
          "type": "application/x-mpegURL",
          "src": "https://publicstreamer2.cotrip.org:443/rtplive/070E09640CAM1RHS/playlist.m3u8"
        }
      ]
    },
    {
      "uri": "camera/129146",
      "title": "I-25 MP 159.00 NB : 0.8 miles N of Baptist Rd in Monument",
      "active": true,
      "lon": -104.85626,
      "lat": 39.06686,
      "hls_sources": [
        {
          "type": "application/x-mpegURL",
          "src": "https://publicstreamer2.cotrip.org:443/rtplive/025N15900CAM1RHS/playlist.m3u8"
        }
      ]
    },
    {
      "uri": "camera/129151",
      "title": "I-25 MP 220.30 NB : 0.4 miles N of Thornton Pkwy",
      "active": true,
      "lon": -104.98728,
      "lat": 39.87421,
      "hls_sources": [
        {
          "type": "application/x-mpegURL",
          "src": "https://publicstreamer3.cotrip.org:443/rtplive/025N22030CAM1GP2/playlist.m3u8"
        }
      ]
    },
    {
      "uri": "camera/129152",
      "title": "I-70 MP 208.90 WB : 3.3 miles E of US 6/CO 9 in Silverthorne",
      "active": true,
      "lon": -106.00886,
      "lat": 39.65359,
      "hls_sources": [
        {
          "type": "application/x-mpegURL",
          "src": "https://publicstreamer3.cotrip.org:443/rtplive/070W20890CAM2RHS/playlist.m3u8"
        }
      ]
    },
    {
      "uri": "camera/129153",
      "title": "US 6 MP 258.70 WB : 0.4 miles W of Tunnel 6",
      "active": true,
      "lon": -105.41771,
      "lat": 39.73681,
      "hls_sources": [
        {
          "type": "application/x-mpegURL",
          "src": "https://publicstreamer3.cotrip.org:443/rtplive/006W25870CAM1RHS/playlist.m3u8"
        }
      ]
    },
    {
      "uri": "camera/129155",
      "title": "C-470 MP 022.55 EB : 0.5 miles E of S Colorado Blvd",
      "active": true,
      "lon": -104.93304,
      "lat": 39.56058,
      "hls_sources": [
        {
          "type": "application/x-mpegURL",
          "src": "https://publicstreamer3.cotrip.org:443/rtplive/470E02255CAM1RHS/playlist.m3u8"
        }
      ]
    },
    {
      "uri": "camera/129157",
      "title": "C-470 MP 017.75 EB : 0.7 miles E of S Santa Fe Dr/US 85",
      "active": true,
      "lon": -105.02146,
      "lat": 39.56383,
      "hls_sources": [
        {
          "type": "application/x-mpegURL",
          "src": "https://publicstreamer3.cotrip.org:443/rtplive/470E01775CAM1RHS/playlist.m3u8"
        }
      ]
    },
    {
      "uri": "camera/129158",
      "title": "US 6 MP 257.85 EB : 0.6 miles E of I-70",
      "active": true,
      "lon": -105.4288,
      "lat": 39.7418,
      "hls_sources": []
    },
    {
      "uri": "camera/129159",
      "title": "US 287 MP 297.00 NB at Main St in Broomfield",
      "active": true,
      "lon": -105.07173,
      "lat": 39.91432,
      "hls_sources": [
        {
          "type": "application/x-mpegURL",
          "src": "https://publicstreamer3.cotrip.org:443/rtplive/287N29700CAM1NEC/playlist.m3u8"
        }
      ]
    },
    {
      "uri": "camera/129160",
      "title": "CO 115 MP 043.85 SB at S Academy Blvd in Fort Carson",
      "active": true,
      "lon": -104.81403,
      "lat": 38.76612,
      "hls_sources": [
        {
          "type": "application/x-mpegURL",
          "src": "https://publicstreamer3.cotrip.org:443/rtplive/115S04385CAM1RP1/playlist.m3u8"
        }
      ]
    },
    {
      "uri": "camera/129161",
      "title": "US 6 MP 270.35 WB : 0.2 miles E of Tunnel 1",
      "active": true,
      "lon": -105.25243,
      "lat": 39.74962,
      "hls_sources": [
        {
          "type": "application/x-mpegURL",
          "src": "https://publicstreamer3.cotrip.org:443/rtplive/006W27035CAM1RHS/playlist.m3u8"
        }
      ]
    },
    {
      "uri": "camera/129162",
      "title": "I-76 MP 011.10 WB : 0.6 miles W of E 96th Ave",
      "active": true,
      "lon": -104.90694,
      "lat": 39.86499,
      "hls_sources": [
        {
          "type": "application/x-mpegURL",
          "src": "https://publicstreamer3.cotrip.org:443/rtplive/076W01110CAM1GP3/playlist.m3u8"
        }
      ]
    },
    {
      "uri": "camera/129163",
      "title": "US 6 MP 262.15 WB at Mayhem Gulch Trailhead",
      "active": true,
      "lon": -105.37089,
      "lat": 39.73611,
      "hls_sources": [
        {
          "type": "application/x-mpegURL",
          "src": "https://publicstreamer3.cotrip.org:443/rtplive/006W26215CAM1RHS/playlist.m3u8"
        }
      ]
    },
    {
      "uri": "camera/129164",
      "title": "US 6 MP 262.65 EB : 1.8 miles W of Tunnel 3",
      "active": true,
      "lon": -105.36018,
      "lat": 39.73629,
      "hls_sources": [
        {
          "type": "application/x-mpegURL",
          "src": "https://publicstreamer3.cotrip.org:443/rtplive/006E26265CAM1RHS/playlist.m3u8"
        }
      ]
    },
    {
      "uri": "camera/129165",
      "title": "I-70 MP 116.60 EB at Grand Ave in Glenwood Springs",
      "active": true,
      "lon": -107.32469,
      "lat": 39.54831,
      "hls_sources": [
        {
          "type": "application/x-mpegURL",
          "src": "https://publicstreamer3.cotrip.org:443/rtplive/070E11660CAM1RHS/playlist.m3u8"
        }
      ]
    },
    {
      "uri": "camera/129166",
      "title": "I-70 MP 201.45 EB : 0.6 miles E of Main St in Frisco",
      "active": true,
      "lon": -106.10909,
      "lat": 39.58389,
      "hls_sources": [
        {
          "type": "application/x-mpegURL",
          "src": "https://publicstreamer3.cotrip.org:443/rtplive/070E20145CAM1GP2/playlist.m3u8"
        }
      ]
    },
    {
      "uri": "camera/129167",
      "title": "I-70 MP 238.50 WB : 0.5 miles W of Stanley Rd/CR 312",
      "active": true,
      "lon": -105.54111,
      "lat": 39.74616,
      "hls_sources": [
        {
          "type": "application/x-mpegURL",
          "src": "https://publicstreamer3.cotrip.org:443/rtplive/070W23850CAM1MED/playlist.m3u8"
        }
      ]
    },
    {
      "uri": "camera/129170",
      "title": "I-25 MP 197.65 NB : 0.6 miles N of E Arapahoe Rd",
      "active": true,
      "lon": -104.88798,
      "lat": 39.60084,
      "hls_sources": [
        {
          "type": "application/x-mpegURL",
          "src": "https://publicstreamer3.cotrip.org:443/rtplive/025N19765CAM1RHS/playlist.m3u8"
        }
      ]
    },
    {
      "uri": "camera/129171",
      "title": "I-25 MP 212.70 NB at W 38th Ave/Park Ave",
      "active": true,
      "lon": -104.99546,
      "lat": 39.76753,
      "hls_sources": [
        {
          "type": "application/x-mpegURL",
          "src": "https://publicstreamer3.cotrip.org:443/rtplive/025N21270CAM1RP1/playlist.m3u8"
        }
      ]
    },
    {
      "uri": "camera/129172",
      "title": "I-70 MP 216.60 EB : 0.4 miles E of US 6 Loveland Pass 4",
      "active": true,
      "lon": -105.88261,
      "lat": 39.68473,
      "hls_sources": [
        {
          "type": "application/x-mpegURL",
          "src": "https://publicstreamer3.cotrip.org:443/rtplive/070E21660CAM1RHS-4/playlist.m3u8"
        }
      ]
    },
    {
      "uri": "camera/129174",
      "title": "I-25 MP 255.30 SB at CO 402 in Johnstown",
      "active": true,
      "lon": -104.99331,
      "lat": 40.37828,
      "hls_sources": [
        {
          "type": "application/x-mpegURL",
          "src": "https://publicstreamer3.cotrip.org:443/rtplive/025S25530CAM1RHS/playlist.m3u8"
        }
      ]
    },
    {
      "uri": "camera/129175",
      "title": "I-70 MP 120.85 WB : 0.2 miles W of Grizzly Creek Rest Area",
      "active": true,
      "lon": -107.257,
      "lat": 39.56221,
      "hls_sources": [
        {
          "type": "application/x-mpegURL",
          "src": "https://publicstreamer3.cotrip.org:443/rtplive/070W12085CAM1RHS/playlist.m3u8"
        }
      ]
    },
    {
      "uri": "camera/129176",
      "title": "C-470 MP 008.75 WB : 0.9 miles E of W Bowles Ave",
      "active": true,
      "lon": -105.15072,
      "lat": 39.59764,
      "hls_sources": [
        {
          "type": "application/x-mpegURL",
          "src": "https://publicstreamer3.cotrip.org:443/rtplive/470W00875CAM1RHS/playlist.m3u8"
        }
      ]
    },
    {
      "uri": "camera/129177",
      "title": "I-25 MP 207.40 SB : 0.2 miles S of Santa Fe Dr",
      "active": true,
      "lon": -104.99415,
      "lat": 39.70409,
      "hls_sources": [
        {
          "type": "application/x-mpegURL",
          "src": "https://publicstreamer3.cotrip.org:443/rtplive/025S20740CAM1RHS/playlist.m3u8"
        }
      ]
    },
    {
      "uri": "camera/129178",
      "title": "CO 224 MP 000.65 WB : 0.1 miles E of I-25",
      "active": true,
      "lon": -104.98,
      "lat": 39.82387,
      "hls_sources": []
    },
    {
      "uri": "camera/129179",
      "title": "I-225 MP 000.15 SB (2) : SB I-225 Ramp to SB I-25",
      "active": true,
      "lon": -104.90612,
      "lat": 39.63383,
      "hls_sources": [
        {
          "type": "application/x-mpegURL",
          "src": "https://publicstreamer3.cotrip.org:443/rtplive/225S00015CAM2RHS/playlist.m3u8"
        }
      ]
    },
    {
      "uri": "camera/129181",
      "title": "CO 119 MP 002.75 SB : 2.8 miles N of US 6",
      "active": true,
      "lon": -105.43801,
      "lat": 39.76104,
      "hls_sources": [
        {
          "type": "application/x-mpegURL",
          "src": "https://publicstreamer3.cotrip.org:443/rtplive/119S00275CAM1RHS/playlist.m3u8"
        }
      ]
    },
    {
      "uri": "camera/129182",
      "title": "I-25 MP 205.40 SB : 0.4 miles N of S University Blvd",
      "active": true,
      "lon": -104.96574,
      "lat": 39.68575,
      "hls_sources": [
        {
          "type": "application/x-mpegURL",
          "src": "https://publicstreamer3.cotrip.org:443/rtplive/025S20540CAM1RP2/playlist.m3u8"
        }
      ]
    },
    {
      "uri": "camera/129183",
      "title": "I-70 MP 208.00 WB : 2.4 miles E of US 6/CO 9 in Silverthorne",
      "active": true,
      "lon": -106.02643,
      "lat": 39.64654,
      "hls_sources": [
        {
          "type": "application/x-mpegURL",
          "src": "https://publicstreamer3.cotrip.org:443/rtplive/070W20800CAM1RHS/playlist.m3u8"
        }
      ]
    },
    {
      "uri": "camera/129184",
      "title": "US 6 MP 268.40 EB : 2.1 miles W of Tunnel 1",
      "active": true,
      "lon": -105.27945,
      "lat": 39.74077,
      "hls_sources": [
        {
          "type": "application/x-mpegURL",
          "src": "https://publicstreamer3.cotrip.org:443/rtplive/006E26840CAM1RHS/playlist.m3u8"
        }
      ]
    },
    {
      "uri": "camera/129185",
      "title": "C-470 MP 020.35 WB : 0.7 miles W of S University Blvd/CO 177",
      "active": true,
      "lon": -104.97412,
      "lat": 39.56524,
      "hls_sources": [
        {
          "type": "application/x-mpegURL",
          "src": "https://publicstreamer3.cotrip.org:443/rtplive/470W02035CAM1RHS/playlist.m3u8"
        }
      ]
    },
    {
      "uri": "camera/129186",
      "title": "CO 93 MP 008.80 SB at Westgate Rd in Golden",
      "active": true,
      "lon": -105.24117,
      "lat": 39.88517,
      "hls_sources": [
        {
          "type": "application/x-mpegURL",
          "src": "https://publicstreamer3.cotrip.org:443/rtplive/093S00880CAM1SWC/playlist.m3u8"
        }
      ]
    },
    {
      "uri": "camera/129187",
      "title": "US 6 MP 265.55 EB : 0.2 miles E of Tunnel 2",
      "active": true,
      "lon": -105.31776,
      "lat": 39.73661,
      "hls_sources": [
        {
          "type": "application/x-mpegURL",
          "src": "https://publicstreamer3.cotrip.org:443/rtplive/006E26555CAM1RHS/playlist.m3u8"
        }
      ]
    },
    {
      "uri": "camera/129188",
      "title": "I-70 MP 204.65 EB : 0.7 miles W of US 6/CO 9 in Silverthorne",
      "active": true,
      "lon": -106.07284,
      "lat": 39.61981,
      "hls_sources": [
        {
          "type": "application/x-mpegURL",
          "src": "https://publicstreamer3.cotrip.org:443/rtplive/070E20465CAM1GP2/playlist.m3u8"
        }
      ]
    },
    {
      "uri": "camera/129189",
      "title": "I-25 MP 109.95 SB : 0.3 miles S of Pinon",
      "active": true,
      "lon": -104.60783,
      "lat": 38.42887,
      "hls_sources": [
        {
          "type": "application/x-mpegURL",
          "src": "https://publicstreamer3.cotrip.org:443/rtplive/025S10995CAM1RP1/playlist.m3u8"
        }
      ]
    },
    {
      "uri": "camera/129191",
      "title": "I-70 MP 233.30 WB : 0.9 miles W of Mountain St in Dumont",
      "active": true,
      "lon": -105.63099,
      "lat": 39.7654,
      "hls_sources": [
        {
          "type": "application/x-mpegURL",
          "src": "https://publicstreamer3.cotrip.org:443/rtplive/070W23330CAM1RHS/playlist.m3u8"
        }
      ]
    },
    {
      "uri": "camera/129192",
      "title": "US 6 MP 272.95 EB : 0.3 miles E of 19th St in Golden",
      "active": true,
      "lon": -105.22046,
      "lat": 39.74146,
      "hls_sources": [
        {
          "type": "application/x-mpegURL",
          "src": "https://publicstreamer3.cotrip.org:443/rtplive/006E27295CAM1RHS/playlist.m3u8"
        }
      ]
    },
    {
      "uri": "camera/129193",
      "title": "I-25 MP 206.40 NB : 0.3 miles S of S Logan St",
      "active": true,
      "lon": -104.97902,
      "lat": 39.69403,
      "hls_sources": [
        {
          "type": "application/x-mpegURL",
          "src": "https://publicstreamer3.cotrip.org:443/rtplive/025N20640CAM1RHS/playlist.m3u8"
        }
      ]
    },
    {
      "uri": "camera/129194",
      "title": "I-25 MP 200.65 NB : 0.5 miles N of I-225",
      "active": true,
      "lon": -104.91103,
      "lat": 39.64086,
      "hls_sources": [
        {
          "type": "application/x-mpegURL",
          "src": "https://publicstreamer3.cotrip.org:443/rtplive/025N20065CAM1GP2/playlist.m3u8"
        }
      ]
    },
    {
      "uri": "camera/129195",
      "title": "I-70 MP 202.35 EB at CO 9 in Frisco",
      "active": true,
      "lon": -106.09606,
      "lat": 39.59224,
      "hls_sources": [
        {
          "type": "application/x-mpegURL",
          "src": "https://publicstreamer3.cotrip.org:443/rtplive/070E20235CAM1RP1/playlist.m3u8"
        }
      ]
    },
    {
      "uri": "camera/129196",
      "title": "CO 224 MP 000.30 EB at CO 53/Broadway",
      "active": true,
      "lon": -104.98728,
      "lat": 39.82369,
      "hls_sources": [
        {
          "type": "application/x-mpegURL",
          "src": "https://publicstreamer3.cotrip.org:443/rtplive/224E00030CAM1NEC/playlist.m3u8"
        }
      ]
    },
    {
      "uri": "camera/129197",
      "title": "US 24 MP 293.65 EB at Fountain Ave in Cascade",
      "active": true,
      "lon": -104.97144,
      "lat": 38.89694,
      "hls_sources": [
        {
          "type": "application/x-mpegURL",
          "src": "https://publicstreamer3.cotrip.org:443/rtplive/024E29365CAM1SWC/playlist.m3u8"
        }
      ]
    },
    {
      "uri": "camera/129198",
      "title": "I-76 MP 006.95 EB : EB I-270 Ramp to EB I-76",
      "active": true,
      "lon": -104.96224,
      "lat": 39.82359,
      "hls_sources": [
        {
          "type": "application/x-mpegURL",
          "src": "https://publicstreamer3.cotrip.org:443/rtplive/076E00695CAM1RP1/playlist.m3u8"
        }
      ]
    },
    {
      "uri": "camera/129201",
      "title": "C-470 MP 020.75 EB : 0.4 miles W of S University Blvd/CO 177",
      "active": true,
      "lon": -104.96699,
      "lat": 39.5637,
      "hls_sources": [
        {
          "type": "application/x-mpegURL",
          "src": "https://publicstreamer3.cotrip.org:443/rtplive/470E02075CAM1RHS/playlist.m3u8"
        }
      ]
    },
    {
      "uri": "camera/129204",
      "title": "US 6 MP 259.15 WB at E Tunnel 6",
      "active": true,
      "lon": -105.41104,
      "lat": 39.74039,
      "hls_sources": []
    },
    {
      "uri": "camera/129205",
      "title": "I-70 MP 229.60 WB : 1.7 miles E of 15th St in Georgetown",
      "active": true,
      "lon": -105.68684,
      "lat": 39.73766,
      "hls_sources": [
        {
          "type": "application/x-mpegURL",
          "src": "https://publicstreamer3.cotrip.org:443/rtplive/070W22960CAM1RHS/playlist.m3u8"
        }
      ]
    },
    {
      "uri": "camera/129206",
      "title": "I-70 MP 171.75 WB : 0.7 miles E of Dowd Junction",
      "active": true,
      "lon": -106.44255,
      "lat": 39.61472,
      "hls_sources": [
        {
          "type": "application/x-mpegURL",
          "src": "https://publicstreamer3.cotrip.org:443/rtplive/070W17175CAM1RHS/playlist.m3u8"
        }
      ]
    },
    {
      "uri": "camera/129207",
      "title": "I-70 MP 132.30 EB : 1.3 miles W of Colorado River Rd in Dotsero",
      "active": true,
      "lon": -107.08333,
      "lat": 39.64167,
      "hls_sources": [
        {
          "type": "application/x-mpegURL",
          "src": "https://publicstreamer3.cotrip.org:443/rtplive/070E13230CAM1GP2/playlist.m3u8"
        }
      ]
    },